$GPRMC,,V,,,,,,,,,,N*53
$GPVTG,,,,,,,,,N*30
$GPGGA,,,,,,0,00,99.99,,,,,,*48
$GPGSA,A,1,,,,,,,,,,,,,99.99,99.99,99.99*30
$GPGSV,1,1,00*79
$GPGLL,,,,,,V,N*64

$GPRMC,,V,,,,,,,,,,N*53
$GPVTG,,,,,,,,,N*30
$GPGGA,,,,,,0,00,99.99,,,,,,*48
$GPGSA,A,1,,,,,,,,,,,,,99.99,99.99,99.99*30
$GPGSV,1,1,00*79
$GPGLL,,,,,,V,N*64

$GPRMC,,V,,,,,,,,,,N*53
$GPVTG,,,,,,,,,N*30
$GPGGA,,,,,,0,00,99.99,,,,,,*48
$GPGSA,A,1,,,,,,,,,,,,,99.99,99.99,99.99*30
$GPGSV,1,1,01,23,,,40*7D
$GPGLL,,,,,,V,N*64

$GPRMC,,V,,,,,,,,,,N*53
$GPVTG,,,,,,,,,N*30
$GPGGA,,,,,,0,00,99.99,,,,,,*48
$GPGSA,A,1,,,,,,,,,,,,,99.99,99.99,99.99*30
$GPGSV,1,1,01,23,,,39*73
$GPGLL,,,,,,V,N*64

$GPRMC,,V,,,,,,,,,,N*53
$GPVTG,,,,,,,,,N*30
$GPGGA,,,,,,0,00,99.99,,,,,,*48
$GPGSA,A,1,,,,,,,,,,,,,99.99,99.99,99.99*30
$GPGSV,1,1,02,10,,,41,23,,,40*7A
$GPGLL,,,,,,V,N*64

$GPRMC,,V,,,,,,,,,,N*53
$GPVTG,,,,,,,,,N*30
$GPGGA,,,,,,0,00,99.99,,,,,,*48
$GPGSA,A,1,,,,,,,,,,,,,99.99,99.99,99.99*30
$GPGSV,1,1,03,08,,,37,10,,,42,23,,,41*75
$GPGLL,,,,,,V,N*64

$GPRMC,,V,,,,,,,,,,N*53
$GPVTG,,,,,,,,,N*30
$GPGGA,,,,,,0,00,99.99,,,,,,*48
$GPGSA,A,1,,,,,,,,,,,,,99.99,99.99,99.99*30
$GPGSV,1,1,03,08,,,36,10,,,43,23,,,38*7B
$GPGLL,,,,,,V,N*64

$GPRMC,,V,,,,,,,,,,N*53
$GPVTG,,,,,,,,,N*30
$GPGGA,,,,,,0,00,99.99,,,,,,*48
$GPGSA,A,1,,,,,,,,,,,,,99.99,99.99,99.99*30
$GPGSV,1,1,03,08,,,30,10,,,39,23,,,38*70
$GPGLL,,,,,,V,N*64

$GPRMC,,V,,,,,,,,,,N*53
$GPVTG,,,,,,,,,N*30
$GPGGA,,,,,,0,00,99.99,,,,,,*48
$GPGSA,A,1,,,,,,,,,,,,,99.99,99.99,99.99*30
$GPGSV,1,1,03,08,,,28,10,,,39,23,,,39*78
$GPGLL,,,,,,V,N*64

$GPRMC,,V,,,,,,,,,,N*53
$GPVTG,,,,,,,,,N*30
$GPGGA,,,,,,0,00,99.99,,,,,,*48
$GPGSA,A,1,,,,,,,,,,,,,99.99,99.99,99.99*30
$GPGSV,1,1,03,08,,,33,10,,,43,23,,,42*73
$GPGLL,,,,,,V,N*64

$GPRMC,,V,,,,,,,,,,N*53
$GPVTG,,,,,,,,,N*30
$GPGGA,,,,,,0,00,99.99,,,,,,*48
$GPGSA,A,1,,,,,,,,,,,,,99.99,99.99,99.99*30
$GPGSV,1,1,03,08,,,33,10,,,40,23,,,36*73
$GPGLL,,,,,,V,N*64

$GPRMC,,V,,,,,,,,,,N*53
$GPVTG,,,,,,,,,N*30
$GPGGA,,,,,,0,00,99.99,,,,,,*48
$GPGSA,A,1,,,,,,,,,,,,,99.99,99.99,99.99*30
$GPGSV,1,1,03,08,,,36,10,,,43,23,,,40*74
$GPGLL,,,,,,V,N*64

$GPRMC,,V,,,,,,,,,,N*53
$GPVTG,,,,,,,,,N*30
$GPGGA,,,,,,0,00,99.99,,,,,,*48
$GPGSA,A,1,,,,,,,,,,,,,99.99,99.99,99.99*30
$GPGSV,1,1,03,08,,,36,10,,,45,23,,,40*72
$GPGLL,,,,,,V,N*64

$GPRMC,,V,,,,,,,,,,N*53
$GPVTG,,,,,,,,,N*30
$GPGGA,,,,,,0,00,99.99,,,,,,*48
$GPGSA,A,1,,,,,,,,,,,,,99.99,99.99,99.99*30
$GPGSV,1,1,03,08,,,36,10,,,45,23,,,40*72
$GPGLL,,,,,,V,N*64

$GPRMC,,V,,,,,,,,,,N*53
$GPVTG,,,,,,,,,N*30
$GPGGA,,,,,,0,00,99.99,,,,,,*48
$GPGSA,A,1,,,,,,,,,,,,,99.99,99.99,99.99*30
$GPGSV,1,1,04,08,,,36,10,,,45,21,,,29,23,,,40*7D
$GPGLL,,,,,,V,N*64

$GPRMC,161504.99,V,,,,,,,,,,N*7A
$GPVTG,,,,,,,,,N*30
$GPGGA,161504.99,,,,,0,00,99.99,,,,,,*61
$GPGSA,A,1,,,,,,,,,,,,,99.99,99.99,99.99*30
$GPGSV,1,1,04,08,,,35,10,,,46,21,,,28,23,,,40*7C
$GPGLL,,,,,161504.99,V,N*4D

$GPRMC,161505.99,V,,,,,,,,,,N*7B
$GPVTG,,,,,,,,,N*30
$GPGGA,161505.99,,,,,0,00,99.99,,,,,,*60
$GPGSA,A,1,,,,,,,,,,,,,99.99,99.99,99.99*30
$GPGSV,1,1,04,08,,,36,10,,,46,21,,,28,23,,,40*7F
$GPGLL,,,,,161505.99,V,N*4C

$GPRMC,161507.00,V,,,,,,,,,,N*79
$GPVTG,,,,,,,,,N*30
$GPGGA,161507.00,,,,,0,00,99.99,,,,,,*62
$GPGSA,A,1,,,,,,,,,,,,,99.99,99.99,99.99*30
$GPGSV,1,1,04,08,,,36,10,,,46,21,,,28,23,,,40*7F
$GPGLL,,,,,161507.00,V,N*4E

$GPRMC,161508.00,V,,,,,,,,,,N*76
$GPVTG,,,,,,,,,N*30
$GPGGA,161508.00,,,,,0,00,99.99,,,,,,*6D
$GPGSA,A,1,,,,,,,,,,,,,99.99,99.99,99.99*30
$GPGSV,1,1,04,08,,,36,10,,,46,21,,,28,23,,,40*7F
$GPGLL,,,,,161508.00,V,N*41

$GPRMC,161508.99,V,,,,,,,,,,N*76
$GPVTG,,,,,,,,,N*30
$GPGGA,161508.99,,,,,0,00,99.99,,,,,,*6D
$GPGSA,A,1,,,,,,,,,,,,,99.99,99.99,99.99*30
$GPGSV,1,1,04,08,,,36,10,,,46,21,,,28,23,,,39*71
$GPGLL,,,,,161508.99,V,N*41

$GPRMC,161510.00,V,,,,,,,,,,N*7F
$GPVTG,,,,,,,,,N*30
$GPGGA,161510.00,,,,,0,00,99.99,,,,,,*64
$GPGSA,A,1,,,,,,,,,,,,,99.99,99.99,99.99*30
$GPGSV,2,1,05,08,,,36,10,,,47,18,,,32,21,,,28*71
$GPGSV,2,2,05,23,,,40*79
$GPGLL,,,,,161510.00,V,N*48

$GPRMC,161511.00,V,,,,,,,,,,N*7E
$GPVTG,,,,,,,,,N*30
$GPGGA,161511.00,,,,,0,00,99.99,,,,,,*65
$GPGSA,A,1,,,,,,,,,,,,,99.99,99.99,99.99*30
$GPGSV,2,1,05,08,,,36,10,,,47,18,,,30,21,,,27*7C
$GPGSV,2,2,05,23,,,39*77
$GPGLL,,,,,161511.00,V,N*49

$GPRMC,161511.99,V,,,,,,,,,,N*7E
$GPVTG,,,,,,,,,N*30
$GPGGA,161511.99,,,,,0,00,99.99,,,,,,*65
$GPGSA,A,1,,,,,,,,,,,,,99.99,99.99,99.99*30
$GPGSV,2,1,05,08,,,36,10,,,47,18,,,29,21,,,26*75
$GPGSV,2,2,05,23,,,38*76
$GPGLL,,,,,161511.99,V,N*49

$GPRMC,161513.00,V,,,,,,,,,,N*7C
$GPVTG,,,,,,,,,N*30
$GPGGA,161513.00,,,,,0,00,99.99,,,,,,*67
$GPGSA,A,1,,,,,,,,,,,,,99.99,99.99,99.99*30
$GPGSV,2,1,05,08,,,36,10,,,47,18,,,28,21,,,26*74
$GPGSV,2,2,05,23,,,38*76
$GPGLL,,,,,161513.00,V,N*4B

$GPRMC,161514.00,V,,,,,,,,,,N*7B
$GPVTG,,,,,,,,,N*30
$GPGGA,161514.00,,,,,0,00,99.99,,,,,,*60
$GPGSA,A,1,,,,,,,,,,,,,99.99,99.99,99.99*30
$GPGSV,2,1,05,08,,,36,10,,,47,18,,,28,21,,,26*74
$GPGSV,2,2,05,23,,,38*76
$GPGLL,,,,,161514.00,V,N*4C

$GPRMC,161514.99,V,,,,,,,,,,N*7B
$GPVTG,,,,,,,,,N*30
$GPGGA,161514.99,,,,,0,00,99.99,,,,,,*60
$GPGSA,A,1,,,,,,,,,,,,,99.99,99.99,99.99*30
$GPGSV,2,1,05,08,,,35,10,,,47,18,,,27,21,,,27*79
$GPGSV,2,2,05,23,,,38*76
$GPGLL,,,,,161514.99,V,N*4C

$GPRMC,161516.00,V,,,,,,,,,,N*79
$GPVTG,,,,,,,,,N*30
$GPGGA,161516.00,,,,,0,00,99.99,,,,,,*62
$GPGSA,A,1,,,,,,,,,,,,,99.99,99.99,99.99*30
$GPGSV,2,1,05,08,,,39,10,,,47,18,,,26,21,,,27*74
$GPGSV,2,2,05,23,,,37*79
$GPGLL,,,,,161516.00,V,N*4E

$GPRMC,161517.00,V,,,,,,,240422,,,N*7A
$GPVTG,,,,,,,,,N*30
$GPGGA,161517.00,,,,,0,00,99.99,,,,,,*63
$GPGSA,A,1,,,,,,,,,,,,,99.99,99.99,99.99*30
$GPGSV,2,1,05,08,,,39,10,,,47,18,,,26,21,,,28*7B
$GPGSV,2,2,05,23,,,37*79
$GPGLL,,,,,161517.00,V,N*4F

$GPRMC,161517.99,V,,,,,,,240422,,,N*7A
$GPVTG,,,,,,,,,N*30
$GPGGA,161517.99,,,,,0,00,99.99,,,,,,*63
$GPGSA,A,1,,,,,,,,,,,,,99.99,99.99,99.99*30
$GPGSV,2,1,05,08,,,39,10,,,47,18,,,25,21,,,28*78
$GPGSV,2,2,05,23,,,37*79
$GPGLL,,,,,161517.99,V,N*4F

$GPRMC,161519.00,V,,,,,,,240422,,,N*74
$GPVTG,,,,,,,,,N*30
$GPGGA,161519.00,,,,,0,00,99.99,,,,,,*6D
$GPGSA,A,1,,,,,,,,,,,,,99.99,99.99,99.99*30
$GPGSV,2,1,05,08,,,39,10,,,44,18,,,23,21,,,28*7D
$GPGSV,2,2,05,23,,,41*78
$GPGLL,,,,,161519.00,V,N*41

$GPRMC,161520.00,V,,,,,,,240422,,,N*7E
$GPVTG,,,,,,,,,N*30
$GPGGA,161520.00,,,,,0,00,99.99,,,,,,*67
$GPGSA,A,1,,,,,,,,,,,,,99.99,99.99,99.99*30
$GPGSV,2,1,05,08,,,42,10,,,43,18,,,22,21,,,28*77
$GPGSV,2,2,05,23,,,41*78
$GPGLL,,,,,161520.00,V,N*4B

$GPRMC,161521.00,V,,,,,,,240422,,,N*7F
$GPVTG,,,,,,,,,N*30
$GPGGA,161521.00,,,,,0,00,99.99,,,,,,*66
$GPGSA,A,1,,,,,,,,,,,,,99.99,99.99,99.99*30
$GPGSV,2,1,05,08,,,41,10,,,45,18,,,22,21,,,28*72
$GPGSV,2,2,05,23,,,41*78
$GPGLL,,,,,161521.00,V,N*4A

$GPRMC,161522.01,V,,,,,,,240422,,,N*7D
$GPVTG,,,,,,,,,N*30
$GPGGA,161522.01,,,,,0,00,99.99,,,,,,*64
$GPGSA,A,1,,,,,,,,,,,,,99.99,99.99,99.99*30
$GPGSV,2,1,05,08,,,39,10,,,47,18,,,23,21,,,32*75
$GPGSV,2,2,05,23,,,36*78
$GPGLL,,,,,161522.01,V,N*48

$GPRMC,161522.99,V,,,,,,,240422,,,N*7C
$GPVTG,,,,,,,,,N*30
$GPGGA,161522.99,,,,,0,00,99.99,,,,,,*65
$GPGSA,A,1,,,,,,,,,,,,,99.99,99.99,99.99*30
$GPGSV,2,1,05,08,,,40,10,,,44,18,,,23,21,,,26*7D
$GPGSV,2,2,05,23,,,40*79
$GPGLL,,,,,161522.99,V,N*49

$GPRMC,161523.99,V,,,,,,,240422,,,N*7D
$GPVTG,,,,,,,,,N*30
$GPGGA,161523.99,,,,,0,00,99.99,,,,,,*64
$GPGSA,A,1,,,,,,,,,,,,,99.99,99.99,99.99*30
$GPGSV,2,1,05,08,,,39,10,,,46,18,,,21,21,,,25*70
$GPGSV,2,2,05,23,,,39*77
$GPGLL,,,,,161523.99,V,N*48

$GPRMC,161525.01,V,,,,,,,240422,,,N*7A
$GPVTG,,,,,,,,,N*30
$GPGGA,161525.01,,,,,0,00,99.99,,,,,,*63
$GPGSA,A,1,,,,,,,,,,,,,99.99,99.99,99.99*30
$GPGSV,2,1,05,08,,,39,10,,,46,18,,,20,21,,,22*76
$GPGSV,2,2,05,23,,,38*76
$GPGLL,,,,,161525.01,V,N*4F

$GPRMC,161526.00,V,,,,,,,240422,,,N*78
$GPVTG,,,,,,,,,N*30
$GPGGA,161526.00,,,,,0,00,99.99,,,,,,*61
$GPGSA,A,1,,,,,,,,,,,,,99.99,99.99,99.99*30
$GPGSV,2,1,05,08,,,40,10,,,47,18,,,20,21,,,19*71
$GPGSV,2,2,05,23,,,37*79
$GPGLL,,,,,161526.00,V,N*4D

$GPRMC,161526.99,V,,,,,,,240422,,,N*78
$GPVTG,,,,,,,,,N*30
$GPGGA,161526.99,,,,,0,00,99.99,,,,,,*61
$GPGSA,A,1,,,,,,,,,,,,,99.99,99.99,99.99*30
$GPGSV,2,1,05,08,,,40,10,,,47,18,,,22,23,,,37*7D
$GPGSV,2,2,05,30,,,28*75
$GPGLL,,,,,161526.99,V,N*4D

$GPRMC,161528.00,V,,,,,,,240422,,,N*76
$GPVTG,,,,,,,,,N*30
$GPGGA,161528.00,,,,,0,00,99.99,,,,,,*6F
$GPGSA,A,1,,,,,,,,,,,,,99.99,99.99,99.99*30
$GPGSV,1,1,04,08,,,40,10,,,47,18,,,22,23,,,37*7F
$GPGLL,,,,,161528.00,V,N*43

$GPRMC,161529.00,V,,,,,,,240422,,,N*77
$GPVTG,,,,,,,,,N*30
$GPGGA,161529.00,,,,,0,00,99.99,,,,,,*6E
$GPGSA,A,1,,,,,,,,,,,,,99.99,99.99,99.99*30
$GPGSV,2,1,06,08,,,40,10,,,47,18,,,22,23,,,37*7E
$GPGSV,2,2,06,29,,,28,30,,,29*76
$GPGLL,,,,,161529.00,V,N*42

$GPRMC,161529.99,V,,,,,,,240422,,,N*77
$GPVTG,,,,,,,,,N*30
$GPGGA,161529.99,,,,,0,00,99.99,,,,,,*6E
$GPGSA,A,1,,,,,,,,,,,,,99.99,99.99,99.99*30
$GPGSV,1,1,04,08,,,40,10,,,47,18,,,22,23,,,37*7F
$GPGLL,,,,,161529.99,V,N*42

$GPRMC,161531.00,V,,,,,,,240422,,,N*7E
$GPVTG,,,,,,,,,N*30
$GPGGA,161531.00,,,,,0,00,99.99,,,,,,*67
$GPGSA,A,1,,,,,,,,,,,,,99.99,99.99,99.99*30
$GPGSV,1,1,04,08,,,40,10,,,47,18,,,21,23,,,37*7C
$GPGLL,,,,,161531.00,V,N*4B

$GPRMC,161532.01,V,,,,,,,240422,,,N*7C
$GPVTG,,,,,,,,,N*30
$GPGGA,161532.01,,,,,0,00,99.99,,,,,,*65
$GPGSA,A,1,,,,,,,,,,,,,99.99,99.99,99.99*30
$GPGSV,2,1,05,02,,,28,08,,,40,10,,,47,18,,,22*70
$GPGSV,2,2,05,23,,,36*78
$GPGLL,,,,,161532.01,V,N*49

$GPRMC,161532.99,V,,,,,,,240422,,,N*7D
$GPVTG,,,,,,,,,N*30
$GPGGA,161532.99,,,,,0,03,5.78,,,,,,*5D
$GPGSA,A,1,23,08,10,,,,,,,,,,5.86,5.78,1.00*08
$GPGSV,2,1,07,08,35,318,40,10,64,022,47,18,13,082,23,21,19,297,*7A
$GPGSV,2,2,07,22,27,163,,23,32,040,36,32,42,145,*49
$GPGLL,,,,,161532.99,V,N*48

$GPRMC,161534.00,V,,,,,,,240422,,,N*7B
$GPVTG,,,,,,,,,N*30
$GPGGA,161534.00,,,,,0,04,3.45,,,,,,*54
$GPGSA,A,1,23,18,08,10,,,,,,,,,4.27,3.45,2.52*07
$GPGSV,2,1,07,08,35,318,39,10,64,022,47,18,13,082,24,21,19,297,*73
$GPGSV,2,2,07,22,27,163,,23,32,040,36,32,42,145,21*4A
$GPGLL,,,,,161534.00,V,N*4E

$GPRMC,161535.00,V,,,,,,,240422,,,N*7A
$GPVTG,,,,,,,,,N*30
$GPGGA,161535.00,,,,,0,04,3.44,,,,,,*54
$GPGSA,A,1,23,18,08,10,,,,,,,,,4.27,3.44,2.52*06
$GPGSV,2,1,08,06,,,28,08,35,318,39,10,64,022,47,18,13,082,25*46
$GPGSV,2,2,08,21,19,297,26,22,27,163,,23,32,040,37,32,42,145,20*76
$GPGLL,,,,,161535.00,V,N*4F

$GPRMC,161536.00,V,,,,,,,240422,,,N*79
$GPVTG,,,,,,,,,N*30
$GPGGA,161536.00,,,,,0,04,3.44,,,,,,*57
$GPGSA,A,1,23,18,08,10,,,,,,,,,4.27,3.44,2.52*06
$GPGSV,2,1,07,08,35,318,39,10,64,022,47,18,13,082,26,21,19,297,25*76
$GPGSV,2,2,07,22,27,163,,23,32,040,37,32,42,145,18*41
$GPGLL,,,,,161536.00,V,N*4C

$GPRMC,161537.00,A,3003.41206,N,03114.54652,E,0.777,,240422,,,A*74
$GPVTG,,T,,M,0.777,N,1.439,K,A*2B
$GPGGA,161537.00,3003.41206,N,03114.54652,E,1,04,3.44,26.1,M,15.4,M,,*6F
$GPGSA,A,3,23,18,08,10,,,,,,,,,4.27,3.44,2.52*04
$GPGSV,2,1,07,08,35,318,39,10,64,022,47,18,13,082,26,21,19,297,25*76
$GPGSV,2,2,07,22,27,163,,23,32,040,37,32,42,145,17*4E
$GPGLL,3003.41206,N,03114.54652,E,161537.00,A,A*68

$GPRMC,161538.00,A,3003.41255,N,03114.54642,E,0.687,,240422,,,A*72
$GPVTG,,T,,M,0.687,N,1.273,K,A*2D
$GPGGA,161538.00,3003.41255,N,03114.54642,E,1,04,3.44,26.5,M,15.4,M,,*63
$GPGSA,A,3,23,18,08,10,,,,,,,,,4.27,3.44,2.52*04
$GPGSV,2,1,07,08,35,318,39,10,64,022,47,18,13,082,26,21,19,297,25*76
$GPGSV,2,2,07,22,27,163,,23,32,040,38,32,42,145,17*41
$GPGLL,3003.41255,N,03114.54642,E,161538.00,A,A*60

$GPRMC,161539.00,A,3003.41275,N,03114.54613,E,0.604,,240422,,,A*7E
$GPVTG,,T,,M,0.604,N,1.119,K,A*29
$GPGGA,161539.00,3003.41275,N,03114.54613,E,1,04,3.44,27.4,M,15.4,M,,*64
$GPGSA,A,3,23,18,08,10,,,,,,,,,4.27,3.44,2.52*04
$GPGSV,2,1,07,08,35,318,39,10,64,022,47,18,13,082,25,21,19,297,26*76
$GPGSV,2,2,07,22,27,163,,23,32,040,38,32,42,145,15*43
$GPGLL,3003.41275,N,03114.54613,E,161539.00,A,A*67

$GPRMC,161540.00,A,3003.41275,N,03114.54601,E,0.583,,240422,,,A*7F
$GPVTG,,T,,M,0.583,N,1.080,K,A*24
$GPGGA,161540.00,3003.41275,N,03114.54601,E,1,04,3.44,28.0,M,15.4,M,,*62
$GPGSA,A,3,23,18,08,10,,,,,,,,,4.27,3.44,2.53*05
$GPGSV,2,1,07,08,35,318,39,10,64,022,47,18,13,082,25,21,19,297,26*76
$GPGSV,2,2,07,22,27,163,,23,32,040,39,32,42,145,13*44
$GPGLL,3003.41275,N,03114.54601,E,161540.00,A,A*6A

$GPRMC,161541.00,A,3003.41250,N,03114.54582,E,0.659,,240422,,,A*75
$GPVTG,,T,,M,0.659,N,1.221,K,A*29
$GPGGA,161541.00,3003.41250,N,03114.54582,E,1,04,3.44,28.9,M,15.4,M,,*65
$GPGSA,A,3,23,18,08,10,,,,,,,,,4.27,3.44,2.53*05
$GPGSV,2,1,07,08,35,318,40,10,64,022,47,18,13,082,24,21,19,297,26*79
$GPGSV,2,2,07,22,27,163,,23,32,040,38,32,42,145,12*44
$GPGLL,3003.41250,N,03114.54582,E,161541.00,A,A*64

$GPRMC,161542.00,A,3003.41232,N,03114.54575,E,0.334,,240422,,,A*74
$GPVTG,,T,,M,0.334,N,0.618,K,A*28
$GPGGA,161542.00,3003.41232,N,03114.54575,E,1,04,3.44,29.6,M,15.4,M,,*64
$GPGSA,A,3,23,18,08,10,,,,,,,,,4.27,3.44,2.53*05
$GPGSV,2,1,07,08,35,318,40,10,64,022,46,18,13,082,23,21,19,297,22*7B
$GPGSV,2,2,07,22,27,163,,23,32,040,39,32,42,145,15*42
$GPGLL,3003.41232,N,03114.54575,E,161542.00,A,A*6B

$GPRMC,161543.00,A,3003.41213,N,03114.54580,E,0.225,,240422,,,A*7D
$GPVTG,,T,,M,0.225,N,0.416,K,A*25
$GPGGA,161543.00,3003.41213,N,03114.54580,E,1,04,3.44,30.4,M,15.4,M,,*66
$GPGSA,A,3,23,18,08,10,,,,,,,,,4.27,3.44,2.53*05
$GPGSV,2,1,07,08,35,318,40,10,64,022,46,18,13,082,22,21,19,297,20*78
$GPGSV,2,2,07,22,27,163,,23,32,040,39,32,42,145,16*41
$GPGLL,3003.41213,N,03114.54580,E,161543.00,A,A*63

$GPRMC,161544.00,A,3003.41181,N,03114.54597,E,0.744,,240422,,,A*76
$GPVTG,,T,,M,0.744,N,1.378,K,A*29
$GPGGA,161544.00,3003.41181,N,03114.54597,E,1,04,3.44,31.2,M,15.4,M,,*68
$GPGSA,A,3,23,18,08,10,,,,,,,,,4.27,3.44,2.53*05
$GPGSV,2,1,07,08,35,318,40,10,64,022,46,18,13,082,21,21,19,297,18*70
$GPGSV,2,2,07,22,27,163,18,23,32,040,40,32,42,145,18*48
$GPGLL,3003.41181,N,03114.54597,E,161544.00,A,A*6A

$GPRMC,161545.00,A,3003.41155,N,03114.54618,E,0.273,,240422,,,A*7B
$GPVTG,,T,,M,0.273,N,0.506,K,A*26
$GPGGA,161545.00,3003.41155,N,03114.54618,E,1,04,3.44,32.0,M,15.4,M,,*65
$GPGSA,A,3,23,18,08,10,,,,,,,,,4.27,3.44,2.53*05
$GPGSV,2,1,07,08,35,318,41,10,64,022,46,18,13,082,20,21,19,297,24*7F
$GPGSV,2,2,07,22,27,163,18,23,32,040,40,32,42,145,18*48
$GPGLL,3003.41155,N,03114.54618,E,161545.00,A,A*66

$GPRMC,161546.00,A,3003.41127,N,03114.54639,E,0.516,,240422,,,A*7A
$GPVTG,,T,,M,0.516,N,0.956,K,A*2B
$GPGGA,161546.00,3003.41127,N,03114.54639,E,1,04,3.44,32.8,M,15.4,M,,*68
$GPGSA,A,3,23,18,08,10,,,,,,,,,4.27,3.44,2.53*05
$GPGSV,2,1,08,08,35,318,41,10,64,022,45,18,13,082,19,21,19,297,25*78
$GPGSV,2,2,08,22,27,163,17,23,32,040,40,27,,,30,32,42,145,19*4F
$GPGLL,3003.41127,N,03114.54639,E,161546.00,A,A*63

$GPRMC,161547.00,A,3003.41070,N,03114.54665,E,0.584,,240422,,,A*7A
$GPVTG,,T,,M,0.584,N,1.082,K,A*21
$GPGGA,161547.00,3003.41070,N,03114.54665,E,1,04,3.44,33.4,M,15.4,M,,*6E
$GPGSA,A,3,23,18,08,10,,,,,,,,,4.27,3.44,2.53*05
$GPGSV,2,1,08,08,35,318,41,10,64,022,45,18,13,082,20,21,19,297,26*71
$GPGSV,2,2,08,22,27,163,17,23,32,040,40,27,,,29,32,42,145,19*47
$GPGLL,3003.41070,N,03114.54665,E,161547.00,A,A*68

$GPRMC,161548.00,A,3003.41020,N,03114.54694,E,0.600,,240422,,,A*71
$GPVTG,,T,,M,0.600,N,1.111,K,A*25
$GPGGA,161548.00,3003.41020,N,03114.54694,E,1,04,3.44,34.0,M,15.4,M,,*69
$GPGSA,A,3,23,18,08,10,,,,,,,,,4.27,3.44,2.53*05
$GPGSV,2,1,08,08,35,318,41,10,64,022,45,18,13,082,20,21,19,297,24*73
$GPGSV,2,2,08,22,27,163,17,23,32,040,40,27,,,29,32,42,145,21*4C
$GPGLL,3003.41020,N,03114.54694,E,161548.00,A,A*6C

$GPRMC,161549.00,A,3003.40979,N,03114.54713,E,0.046,,240422,,,A*7E
$GPVTG,,T,,M,0.046,N,0.085,K,A*2C
$GPGGA,161549.00,3003.40979,N,03114.54713,E,1,04,5.82,34.5,M,15.4,M,,*6B
$GPGSA,A,2,23,18,08,10,,,,,,,,,5.90,5.82,1.00*00
$GPGSV,2,1,08,08,35,318,41,10,64,022,45,18,13,082,18,21,19,297,22*7E
$GPGSV,2,2,08,22,27,163,16,23,32,040,40,27,,,28,32,42,145,22*4F
$GPGLL,3003.40979,N,03114.54713,E,161549.00,A,A*67

$GPRMC,161550.00,A,3003.40903,N,03114.54726,E,0.637,,240422,,,A*7D
$GPVTG,,T,,M,0.637,N,1.179,K,A*2F
$GPGGA,161550.00,3003.40903,N,03114.54726,E,1,04,5.82,35.0,M,15.4,M,,*6C
$GPGSA,A,2,23,18,08,10,,,,,,,,,5.91,5.82,1.00*01
$GPGSV,2,1,08,08,35,318,41,10,64,022,45,18,13,082,18,21,19,297,19*76
$GPGSV,2,2,08,22,27,163,16,23,32,040,40,27,,,27,32,42,145,22*40
$GPGLL,3003.40903,N,03114.54726,E,161550.00,A,A*64

$GPRMC,161551.00,A,3003.40869,N,03114.54751,E,0.356,,240422,,,A*73
$GPVTG,,T,,M,0.356,N,0.660,K,A*23
$GPGGA,161551.00,3003.40869,N,03114.54751,E,1,04,5.82,35.4,M,15.4,M,,*64
$GPGSA,A,2,23,18,08,10,,,,,,,,,5.91,5.82,1.00*01
$GPGSV,2,1,08,08,35,318,41,10,64,022,45,18,13,082,18,21,19,297,18*77
$GPGSV,2,2,08,22,27,163,15,23,32,040,40,27,,,26,32,42,145,21*41
$GPGLL,3003.40869,N,03114.54751,E,161551.00,A,A*68

$GPRMC,161552.00,A,3003.40811,N,03114.54777,E,0.617,,240422,,,A*7B
$GPVTG,,T,,M,0.617,N,1.142,K,A*25
$GPGGA,161552.00,3003.40811,N,03114.54777,E,1,04,5.82,35.8,M,15.4,M,,*60
$GPGSA,A,2,23,18,08,10,,,,,,,,,5.91,5.82,1.00*01
$GPGSV,2,1,08,08,35,318,41,10,64,022,45,18,13,082,18,21,19,297,17*78
$GPGSV,2,2,08,22,27,163,15,23,32,040,40,27,,,26,32,42,145,21*41
$GPGLL,3003.40811,N,03114.54777,E,161552.00,A,A*60

$GPRMC,161553.00,A,3003.40738,N,03114.54803,E,1.074,,240422,,,A*70
$GPVTG,,T,,M,1.074,N,1.989,K,A*28
$GPGGA,161553.00,3003.40738,N,03114.54803,E,1,04,5.83,36.1,M,15.4,M,,*62
$GPGSA,A,2,23,18,08,10,,,,,,,,,5.91,5.83,1.00*00
$GPGSV,2,1,08,08,35,318,41,10,64,022,45,18,13,082,17,21,19,297,17*77
$GPGSV,2,2,08,22,28,163,13,23,32,040,40,27,,,25,32,42,145,21*4B
$GPGLL,3003.40738,N,03114.54803,E,161553.00,A,A*69

$GPRMC,161554.00,A,3003.40654,N,03114.54822,E,0.968,,240422,,,A*7A
$GPVTG,,T,,M,0.968,N,1.792,K,A*29
$GPGGA,161554.00,3003.40654,N,03114.54822,E,1,04,5.83,36.4,M,15.4,M,,*68
$GPGSA,A,2,23,18,08,10,,,,,,,,,5.91,5.83,1.00*00
$GPGSV,2,1,08,08,35,318,42,10,64,022,45,18,13,082,17,21,19,297,19*7A
$GPGSV,2,2,08,22,28,163,12,23,31,040,39,27,,,25,32,42,145,20*46
$GPGLL,3003.40654,N,03114.54822,E,161554.00,A,A*66

$GPRMC,161555.00,A,3003.40564,N,03114.54837,E,1.121,,240422,,,A*7B
$GPVTG,,T,,M,1.121,N,2.076,K,A*23
$GPGGA,161555.00,3003.40564,N,03114.54837,E,1,04,5.83,36.6,M,15.4,M,,*6F
$GPGSA,A,2,23,18,08,10,,,,,,,,,5.92,5.83,1.00*03
$GPGSV,2,1,08,08,35,318,42,10,64,022,45,18,13,082,18,21,19,297,24*7B
$GPGSV,2,2,08,22,28,163,10,23,31,040,39,27,,,24,32,42,145,20*45
$GPGLL,3003.40564,N,03114.54837,E,161555.00,A,A*63

$GPRMC,161556.00,A,3003.40466,N,03114.54852,E,1.369,,240422,,,A*76
$GPVTG,,T,,M,1.369,N,2.535,K,A*2F
$GPGGA,161556.00,3003.40466,N,03114.54852,E,1,04,5.83,36.8,M,15.4,M,,*62
$GPGSA,A,2,23,18,08,10,,,,,,,,,5.92,5.83,1.00*03
$GPGSV,2,1,08,08,35,318,42,10,64,022,45,18,13,082,19,21,19,297,26*78
$GPGSV,2,2,08,22,28,163,08,23,31,040,39,27,,,25,32,42,145,20*4D
$GPGLL,3003.40466,N,03114.54852,E,161556.00,A,A*60

$GPRMC,161557.00,A,3003.40221,N,03114.54958,E,0.699,,240422,,,A*72
$GPVTG,,T,,M,0.699,N,1.295,K,A*2A
$GPGGA,161557.00,3003.40221,N,03114.54958,E,1,04,3.44,42.3,M,15.4,M,,*68
$GPGSA,A,3,23,18,08,10,,,,,,,,,4.27,3.44,2.53*05
$GPGSV,2,1,08,08,35,318,42,10,64,022,45,18,13,082,19,21,19,297,27*79
$GPGSV,2,2,08,22,28,163,,23,31,040,39,27,,,25,32,42,145,19*4F
$GPGLL,3003.40221,N,03114.54958,E,161557.00,A,A*6F

$GPRMC,161558.00,A,3003.40126,N,03114.54992,E,0.999,,240422,,,A*70
$GPVTG,,T,,M,0.999,N,1.850,K,A*26
$GPGGA,161558.00,3003.40126,N,03114.54992,E,1,04,3.43,43.6,M,15.4,M,,*66
$GPGSA,A,3,23,18,08,10,,,,,,,,,4.27,3.43,2.53*02
$GPGSV,2,1,08,08,35,318,42,10,64,022,44,18,13,082,20,21,19,297,29*7C
$GPGSV,2,2,08,22,28,163,,23,31,040,39,27,,,24,32,42,145,18*4F
$GPGLL,3003.40126,N,03114.54992,E,161558.00,A,A*62

$GPRMC,161559.00,A,3003.40094,N,03114.55000,E,0.952,,240422,,,A*7D
$GPVTG,,T,,M,0.952,N,1.762,K,A*2F
$GPGGA,161559.00,3003.40094,N,03114.55000,E,1,04,3.43,45.0,M,15.4,M,,*6C
$GPGSA,A,3,23,18,08,10,,,,,,,,,4.27,3.43,2.54*05
$GPGSV,2,1,08,08,35,318,42,10,64,022,44,18,13,082,22,21,19,297,31*77
$GPGSV,2,2,08,22,28,163,,23,31,040,39,27,,,24,32,42,145,18*4F
$GPGLL,3003.40094,N,03114.55000,E,161559.00,A,A*68

$GPRMC,161600.00,A,3003.40126,N,03114.54999,E,0.402,,240422,,,A*7A
$GPVTG,,T,,M,0.402,N,0.744,K,A*22
$GPGGA,161600.00,3003.40126,N,03114.54999,E,1,04,3.43,46.5,M,15.4,M,,*65
$GPGSA,A,3,23,18,08,10,,,,,,,,,4.27,3.43,2.54*05
$GPGSV,2,1,08,08,35,318,42,10,64,022,44,18,13,082,23,21,19,297,33*74
$GPGSV,2,2,08,22,28,163,,23,31,040,39,27,,,24,32,42,145,17*40
$GPGLL,3003.40126,N,03114.54999,E,161600.00,A,A*67

$GPRMC,161601.00,A,3003.40139,N,03114.54999,E,0.765,,240422,,,A*77
$GPVTG,,T,,M,0.765,N,1.417,K,A*24
$GPGGA,161601.00,3003.40139,N,03114.54999,E,1,04,3.43,48.1,M,15.4,M,,*60
$GPGSA,A,3,23,18,08,10,,,,,,,,,4.27,3.43,2.54*05
$GPGSV,2,1,08,08,35,318,42,10,64,022,43,18,13,082,24,21,19,297,34*73
$GPGSV,2,2,08,22,28,163,,23,31,040,39,27,,,25,32,42,145,16*40
$GPGLL,3003.40139,N,03114.54999,E,161601.00,A,A*68

$GPRMC,161602.00,A,3003.40164,N,03114.55005,E,1.276,,240422,,,A*77
$GPVTG,,T,,M,1.276,N,2.363,K,A*25
$GPGGA,161602.00,3003.40164,N,03114.55005,E,1,04,3.43,49.8,M,15.4,M,,*6E
$GPGSA,A,3,23,18,08,10,,,,,,,,,4.27,3.43,2.54*05
$GPGSV,2,1,08,08,35,318,42,10,64,022,43,18,13,082,25,21,19,297,34*72
$GPGSV,2,2,08,22,28,163,,23,31,040,39,27,,,25,32,42,145,13*45
$GPGLL,3003.40164,N,03114.55005,E,161602.00,A,A*6E

$GPRMC,161603.00,A,3003.40185,N,03114.55011,E,1.162,,240422,,,A*7A
$GPVTG,,T,,M,1.162,N,2.152,K,A*23
$GPGGA,161603.00,3003.40185,N,03114.55011,E,1,04,3.43,51.1,M,15.4,M,,*65
$GPGSA,A,3,23,18,08,10,,,,,,,,,4.27,3.43,2.54*05
$GPGSV,2,1,08,08,35,318,42,10,64,022,43,18,13,082,24,21,19,297,33*74
$GPGSV,2,2,08,22,28,163,,23,31,040,39,27,,,25,32,42,145,10*46
$GPGLL,3003.40185,N,03114.55011,E,161603.00,A,A*65

$GPRMC,161604.00,A,3003.40162,N,03114.55013,E,1.579,,240422,,,A*78
$GPVTG,,T,,M,1.579,N,2.925,K,A*25
$GPGGA,161604.00,3003.40162,N,03114.55013,E,1,04,3.43,52.1,M,15.4,M,,*6A
$GPGSA,A,3,23,18,08,10,,,,,,,,,4.27,3.43,2.54*05
$GPGSV,2,1,08,08,35,318,42,10,64,022,43,18,13,082,24,21,19,297,33*74
$GPGSV,2,2,08,22,28,163,,23,31,040,39,27,,,25,32,42,145,12*44
$GPGLL,3003.40162,N,03114.55013,E,161604.00,A,A*69

$GPRMC,161605.00,A,3003.40154,N,03114.55019,E,1.438,,240422,,,A*72
$GPVTG,,T,,M,1.438,N,2.663,K,A*2C
$GPGGA,161605.00,3003.40154,N,03114.55019,E,1,04,3.43,53.0,M,15.4,M,,*64
$GPGSA,A,3,23,18,08,10,,,,,,,,,4.27,3.43,2.54*05
$GPGSV,2,1,08,08,35,318,42,10,64,022,43,18,13,082,24,21,19,297,35*72
$GPGSV,2,2,08,22,28,163,,23,31,040,38,27,,,25,32,42,145,14*43
$GPGLL,3003.40154,N,03114.55019,E,161605.00,A,A*67

$GPRMC,161606.00,A,3003.40188,N,03114.55027,E,0.661,,240422,,,A*72
$GPVTG,,T,,M,0.661,N,1.224,K,A*27
$GPGGA,161606.00,3003.40188,N,03114.55027,E,1,04,3.43,53.6,M,15.4,M,,*6D
$GPGSA,A,3,23,18,08,10,,,,,,,,,4.27,3.43,2.54*05
$GPGSV,2,1,08,08,35,318,42,10,64,022,43,18,13,082,25,21,19,297,35*73
$GPGSV,2,2,08,22,28,163,,23,31,040,38,27,,,24,32,42,145,15*43
$GPGLL,3003.40188,N,03114.55027,E,161606.00,A,A*68

$GPRMC,161607.00,A,3003.40216,N,03114.55027,E,0.787,,240422,,,A*7E
$GPVTG,,T,,M,0.787,N,1.457,K,A*2C
$GPGGA,161607.00,3003.40216,N,03114.55027,E,1,04,3.43,54.4,M,15.4,M,,*6D
$GPGSA,A,3,23,18,08,10,,,,,,,,,4.27,3.43,2.54*05
$GPGSV,2,1,08,08,35,318,41,10,64,022,42,18,13,082,25,21,19,297,34*70
$GPGSV,2,2,08,22,28,163,,23,31,040,38,27,,,24,32,42,145,14*42
$GPGLL,3003.40216,N,03114.55027,E,161607.00,A,A*6D

$GPRMC,161608.00,A,3003.40238,N,03114.55029,E,0.722,,240422,,,A*7C
$GPVTG,,T,,M,0.722,N,1.337,K,A*22
$GPGGA,161608.00,3003.40238,N,03114.55029,E,1,04,3.43,55.2,M,15.4,M,,*67
$GPGSA,A,3,23,18,08,10,,,,,,,,,4.27,3.43,2.54*05
$GPGSV,2,1,08,08,35,318,42,10,64,022,42,18,13,082,25,21,19,297,35*72
$GPGSV,2,2,08,22,28,163,,23,31,040,38,27,,,25,32,42,145,13*44
$GPGLL,3003.40238,N,03114.55029,E,161608.00,A,A*60

$GPRMC,161609.00,A,3003.40265,N,03114.55034,E,0.122,,240422,,,A*7F
$GPVTG,,T,,M,0.122,N,0.227,K,A*25
$GPGGA,161609.00,3003.40265,N,03114.55034,E,1,04,3.43,55.9,M,15.4,M,,*69
$GPGSA,A,3,23,18,08,10,,,,,,,,,4.27,3.43,2.54*05
$GPGSV,2,1,08,08,35,318,42,10,64,022,42,18,13,082,24,21,19,297,34*72
$GPGSV,2,2,08,22,28,163,18,23,31,040,38,27,,,25,32,42,145,14*4A
$GPGLL,3003.40265,N,03114.55034,E,161609.00,A,A*65

$GPRMC,161610.00,A,3003.40289,N,03114.55038,E,0.354,,240422,,,A*7A
$GPVTG,,T,,M,0.354,N,0.655,K,A*27
$GPGGA,161610.00,3003.40289,N,03114.55038,E,1,04,3.43,56.6,M,15.4,M,,*63
$GPGSA,A,3,23,18,08,10,,,,,,,,,4.27,3.43,2.54*05
$GPGSV,3,1,09,08,35,318,42,10,64,022,42,18,13,082,24,21,19,297,35*73
$GPGSV,3,2,09,22,28,163,16,23,31,040,38,26,15,196,,27,,,25*48
$GPGSV,3,3,09,32,42,145,15*43
$GPGLL,3003.40289,N,03114.55038,E,161610.00,A,A*63

$GPRMC,161611.00,A,3003.40295,N,03114.55046,E,0.201,,240422,,,A*7E
$GPVTG,,T,,M,0.201,N,0.372,K,A*26
$GPGGA,161611.00,3003.40295,N,03114.55046,E,1,04,3.43,57.0,M,15.4,M,,*61
$GPGSA,A,3,23,18,08,10,,,,,,,,,4.27,3.43,2.54*05
$GPGSV,3,1,09,08,35,318,42,10,64,022,42,18,13,082,23,21,19,297,35*74
$GPGSV,3,2,09,22,28,163,15,23,31,040,38,26,15,196,29,27,,,26*43
$GPGSV,3,3,09,32,42,145,16*40
$GPGLL,3003.40295,N,03114.55046,E,161611.00,A,A*66

$GPRMC,161612.00,A,3003.40293,N,03114.55044,E,0.199,,240422,,,A*7B
$GPVTG,,T,,M,0.199,N,0.368,K,A*2F
$GPGGA,161612.00,3003.40293,N,03114.55044,E,1,04,3.43,57.2,M,15.4,M,,*64
$GPGSA,A,3,23,18,08,10,,,,,,,,,4.27,3.43,2.54*05
$GPGSV,3,1,09,08,35,318,42,10,64,022,44,18,13,082,22,21,19,297,34*72
$GPGSV,3,2,09,22,28,163,15,23,31,040,38,26,15,196,29,27,,,26*43
$GPGSV,3,3,09,32,42,145,15*43
$GPGLL,3003.40293,N,03114.55044,E,161612.00,A,A*61

$GPRMC,161613.00,A,3003.40371,N,03114.55023,E,0.159,,240422,,,A*7A
$GPVTG,,T,,M,0.159,N,0.294,K,A*21
$GPGGA,161613.00,3003.40371,N,03114.55023,E,1,04,3.43,56.8,M,15.4,M,,*62
$GPGSA,A,3,23,18,08,10,,,,,,,,,4.27,3.43,2.54*05
$GPGSV,3,1,09,08,35,318,42,10,64,022,44,18,13,082,21,21,19,297,34*71
$GPGSV,3,2,09,22,28,163,14,23,31,040,38,26,15,196,29,27,,,26*42
$GPGSV,3,3,09,32,42,145,14*42
$GPGLL,3003.40371,N,03114.55023,E,161613.00,A,A*6C

$GPRMC,161614.00,A,3003.40508,N,03114.55006,E,0.325,,240422,,,A*7B
$GPVTG,,T,,M,0.325,N,0.602,K,A*23
$GPGGA,161614.00,3003.40508,N,03114.55006,E,1,04,3.43,56.2,M,15.4,M,,*60
$GPGSA,A,3,23,18,08,10,,,,,,,,,4.27,3.43,2.54*05
$GPGSV,3,1,09,08,35,318,42,10,64,022,45,18,13,082,20,21,19,297,34*71
$GPGSV,3,2,09,22,28,163,13,23,31,040,38,26,15,196,29,27,,,26*45
$GPGSV,3,3,09,32,42,145,12*44
$GPGLL,3003.40508,N,03114.55006,E,161614.00,A,A*64

$GPRMC,161615.00,A,3003.40615,N,03114.54999,E,0.620,,240422,,,A*7B
$GPVTG,,T,,M,0.620,N,1.148,K,A*2B
$GPGGA,161615.00,3003.40615,N,03114.54999,E,1,04,3.43,55.9,M,15.4,M,,*68
$GPGSA,A,3,23,18,08,10,,,,,,,,,4.27,3.43,2.54*05
$GPGSV,3,1,09,08,35,318,42,10,64,022,43,18,13,082,20,21,19,297,34*77
$GPGSV,3,2,09,22,28,163,11,23,31,040,38,26,15,196,29,27,,,26*47
$GPGSV,3,3,09,32,42,145,09*4E
$GPGLL,3003.40615,N,03114.54999,E,161615.00,A,A*64

$GPRMC,161616.00,A,3003.40676,N,03114.54989,E,0.622,,240422,,,A*7E
$GPVTG,,T,,M,0.622,N,1.151,K,A*21
$GPGGA,161616.00,3003.40676,N,03114.54989,E,1,04,3.43,55.8,M,15.4,M,,*6E
$GPGSA,A,3,23,18,08,10,,,,,,,,,4.27,3.43,2.54*05
$GPGSV,3,1,09,08,35,318,42,10,64,022,44,18,13,082,20,21,19,297,34*70
$GPGSV,3,2,09,22,28,163,09,23,31,040,38,26,15,196,29,27,,,26*4E
$GPGSV,3,3,09,32,42,145,09*4E
$GPGLL,3003.40676,N,03114.54989,E,161616.00,A,A*63

$GPRMC,161617.00,A,3003.40693,N,03114.54981,E,0.388,,240422,,,A*79
$GPVTG,,T,,M,0.388,N,0.719,K,A*2F
$GPGGA,161617.00,3003.40693,N,03114.54981,E,1,04,3.43,55.7,M,15.4,M,,*63
$GPGSA,A,3,23,18,08,10,,,,,,,,,4.27,3.43,2.54*05
$GPGSV,3,1,09,08,35,318,42,10,64,022,42,18,13,082,20,21,19,297,34*76
$GPGSV,3,2,09,22,28,163,10,23,31,040,38,26,15,196,28,27,,,26*47
$GPGSV,3,3,09,32,42,145,*47
$GPGLL,3003.40693,N,03114.54981,E,161617.00,A,A*61

$GPRMC,161618.00,A,3003.40676,N,03114.54975,E,0.216,,240422,,,A*70
$GPVTG,,T,,M,0.216,N,0.400,K,A*22
$GPGGA,161618.00,3003.40676,N,03114.54975,E,1,04,3.43,55.6,M,15.4,M,,*6D
$GPGSA,A,3,23,18,08,10,,,,,,,,,4.27,3.43,2.55*04
$GPGSV,3,1,09,08,35,318,42,10,64,022,42,18,13,082,21,21,19,297,34*77
$GPGSV,3,2,09,22,28,163,10,23,31,040,38,26,15,196,28,27,,,26*47
$GPGSV,3,3,09,32,42,145,*47
$GPGLL,3003.40676,N,03114.54975,E,161618.00,A,A*6E

$GPRMC,161619.00,A,3003.40612,N,03114.54970,E,0.696,,240422,,,A*7A
$GPVTG,,T,,M,0.696,N,1.290,K,A*20
$GPGGA,161619.00,3003.40612,N,03114.54970,E,1,04,3.43,55.6,M,15.4,M,,*6B
$GPGSA,A,3,23,18,08,10,,,,,,,,,4.27,3.43,2.55*04
$GPGSV,3,1,09,08,35,318,42,10,64,022,42,18,13,082,21,21,19,297,33*70
$GPGSV,3,2,09,22,28,163,10,23,31,040,38,26,15,196,28,27,,,25*44
$GPGSV,3,3,09,32,42,145,*47
$GPGLL,3003.40612,N,03114.54970,E,161619.00,A,A*68

$GPRMC,161620.00,A,3003.40519,N,03114.54958,E,1.296,,240422,,,A*77
$GPVTG,,T,,M,1.296,N,2.399,K,A*2E
$GPGGA,161620.00,3003.40519,N,03114.54958,E,1,04,3.43,55.7,M,15.4,M,,*62
$GPGSA,A,3,23,18,08,10,,,,,,,,,4.27,3.43,2.55*04
$GPGSV,3,1,09,08,35,318,42,10,64,022,42,18,13,082,21,21,19,297,33*70
$GPGSV,3,2,09,22,28,163,08,23,31,040,38,26,15,196,28,27,,,24*4C
$GPGSV,3,3,09,32,42,145,*47
$GPGLL,3003.40519,N,03114.54958,E,161620.00,A,A*60

$GPRMC,161621.00,A,3003.40432,N,03114.54946,E,1.498,,240422,,,A*79
$GPVTG,,T,,M,1.498,N,2.774,K,A*21
$GPGGA,161621.00,3003.40432,N,03114.54946,E,1,04,3.43,55.7,M,15.4,M,,*64
$GPGSA,A,3,23,18,08,10,,,,,,,,,4.27,3.43,2.55*04
$GPGSV,3,1,09,08,35,318,42,10,64,022,42,18,13,082,22,21,19,297,33*73
$GPGSV,3,2,09,22,28,163,08,23,31,040,38,26,15,196,28,27,,,24*4C
$GPGSV,3,3,09,32,42,145,*47
$GPGLL,3003.40432,N,03114.54946,E,161621.00,A,A*66

$GPRMC,161622.00,A,3003.40390,N,03114.54945,E,1.103,,240422,,,A*71
$GPVTG,,T,,M,1.103,N,2.043,K,A*25
$GPGGA,161622.00,3003.40390,N,03114.54945,E,1,04,3.42,55.7,M,15.4,M,,*6A
$GPGSA,A,3,23,18,08,10,,,,,,,,,4.27,3.42,2.55*05
$GPGSV,3,1,09,08,35,318,41,10,64,022,42,18,13,082,22,21,19,297,33*70
$GPGSV,3,2,09,22,28,163,08,23,31,040,38,26,15,196,28,27,,,24*4C
$GPGSV,3,3,09,32,42,145,*47
$GPGLL,3003.40390,N,03114.54945,E,161622.00,A,A*69

$GPRMC,161623.00,A,3003.40338,N,03114.54949,E,1.516,,240422,,,A*7E
$GPVTG,,T,,M,1.516,N,2.807,K,A*2D
$GPGGA,161623.00,3003.40338,N,03114.54949,E,1,04,3.42,55.7,M,15.4,M,,*65
$GPGSA,A,3,23,18,08,10,,,,,,,,,4.27,3.42,2.55*05
$GPGSV,3,1,09,08,35,318,42,10,64,022,42,18,13,082,22,21,19,297,31*71
$GPGSV,3,2,09,22,28,163,08,23,31,040,38,26,15,196,27,27,,,24*43
$GPGSV,3,3,09,32,42,145,18*4E
$GPGLL,3003.40338,N,03114.54949,E,161623.00,A,A*66

$GPRMC,161624.00,A,3003.40303,N,03114.54947,E,1.305,,240422,,,A*7B
$GPVTG,,T,,M,1.305,N,2.418,K,A*2B
$GPGGA,161624.00,3003.40303,N,03114.54947,E,1,04,3.42,55.8,M,15.4,M,,*6B
$GPGSA,A,3,23,18,08,10,,,,,,,,,4.27,3.42,2.55*05
$GPGSV,3,1,09,08,35,318,42,10,64,022,42,18,13,082,21,21,19,297,30*73
$GPGSV,3,2,09,22,28,163,08,23,31,040,38,26,15,196,28,27,,,24*4C
$GPGSV,3,3,09,32,42,145,17*41
$GPGLL,3003.40303,N,03114.54947,E,161624.00,A,A*67

$GPRMC,161625.00,A,3003.40305,N,03114.54940,E,0.756,,240422,,,A*78
$GPVTG,,T,,M,0.756,N,1.400,K,A*22
$GPGGA,161625.00,3003.40305,N,03114.54940,E,1,04,3.42,55.8,M,15.4,M,,*6B
$GPGSA,A,3,23,18,08,10,,,,,,,,,4.27,3.42,2.55*05
$GPGSV,3,1,09,08,35,318,41,10,64,022,42,18,13,082,21,21,19,297,30*70
$GPGSV,3,2,09,22,28,163,09,23,31,040,38,26,15,196,28,27,,,24*4D
$GPGSV,3,3,09,32,42,145,18*4E
$GPGLL,3003.40305,N,03114.54940,E,161625.00,A,A*67

$GPRMC,161626.00,A,3003.40297,N,03114.54920,E,1.270,,240422,,,A*77
$GPVTG,,T,,M,1.270,N,2.352,K,A*21
$GPGGA,161626.00,3003.40297,N,03114.54920,E,1,04,3.42,55.7,M,15.4,M,,*6B
$GPGSA,A,3,23,18,08,10,,,,,,,,,4.27,3.42,2.55*05
$GPGSV,3,1,09,08,35,318,42,10,64,022,43,18,13,082,22,21,19,297,27*77
$GPGSV,3,2,09,22,28,163,14,23,31,040,37,26,15,196,26,27,,,23*47
$GPGSV,3,3,09,32,42,145,19*4F
$GPGLL,3003.40297,N,03114.54920,E,161626.00,A,A*68

$GPRMC,161627.00,A,3003.40320,N,03114.54886,E,1.009,,240422,,,A*7A
$GPVTG,,T,,M,1.009,N,1.868,K,A*2C
$GPGGA,161627.00,3003.40320,N,03114.54886,E,1,04,3.42,55.7,M,15.4,M,,*6A
$GPGSA,A,3,23,18,08,10,,,,,,,,,4.27,3.42,2.55*05
$GPGSV,3,1,09,08,35,318,42,10,64,022,45,18,13,082,21,21,19,297,26*73
$GPGSV,3,2,09,22,28,163,15,23,31,040,37,26,15,196,24,27,,,23*44
$GPGSV,3,3,09,32,42,145,17*41
$GPGLL,3003.40320,N,03114.54886,E,161627.00,A,A*69

$GPRMC,161628.00,A,3003.40458,N,03114.54859,E,0.176,,240422,,,A*77
$GPVTG,,T,,M,0.176,N,0.326,K,A*24
$GPGGA,161628.00,3003.40458,N,03114.54859,E,1,04,3.42,55.3,M,15.4,M,,*6B
$GPGSA,A,3,23,18,08,10,,,,,,,,,4.27,3.42,2.55*05
$GPGSV,3,1,09,08,35,318,42,10,64,022,45,18,13,082,20,21,19,297,25*71
$GPGSV,3,2,09,22,28,163,14,23,31,040,37,26,15,196,26,27,,,23*47
$GPGSV,3,3,09,32,42,145,18*4E
$GPGLL,3003.40458,N,03114.54859,E,161628.00,A,A*6C

$GPRMC,161629.00,A,3003.40636,N,03114.54829,E,1.001,,240422,,,A*7B
$GPVTG,,T,,M,1.001,N,1.853,K,A*2C
$GPGGA,161629.00,3003.40636,N,03114.54829,E,1,04,3.42,55.0,M,15.4,M,,*64
$GPGSA,A,3,23,18,08,10,,,,,,,,,4.27,3.42,2.55*05
$GPGSV,3,1,09,08,35,318,40,10,64,022,45,18,13,082,19,21,19,297,25*79
$GPGSV,3,2,09,22,28,163,11,23,31,040,37,26,15,196,26,27,,,23*42
$GPGSV,3,3,09,32,42,145,19*4F
$GPGLL,3003.40636,N,03114.54829,E,161629.00,A,A*60

$GPRMC,161630.00,A,3003.40799,N,03114.54795,E,1.878,,240422,,,A*79
$GPVTG,,T,,M,1.878,N,3.479,K,A*2C
$GPGGA,161630.00,3003.40799,N,03114.54795,E,1,04,3.42,54.7,M,15.4,M,,*66
$GPGSA,A,3,23,18,08,10,,,,,,,,,4.27,3.42,2.55*05
$GPGSV,3,1,09,08,35,318,41,10,64,022,45,18,13,082,16,21,19,297,26*74
$GPGSV,3,2,09,22,28,163,08,23,31,040,38,26,15,196,27,27,,,25*42
$GPGSV,3,3,09,32,42,145,20*45
$GPGLL,3003.40799,N,03114.54795,E,161630.00,A,A*64

$GPRMC,161631.00,A,3003.40946,N,03114.54755,E,2.656,,240422,,,A*79
$GPVTG,,T,,M,2.656,N,4.918,K,A*20
$GPGGA,161631.00,3003.40946,N,03114.54755,E,1,04,3.42,54.6,M,15.4,M,,*66
$GPGSA,A,3,23,18,08,10,,,,,,,,,4.27,3.42,2.55*05
$GPGSV,3,1,09,08,35,318,41,10,64,022,45,18,13,082,15,21,19,297,26*77
$GPGSV,3,2,09,22,28,163,08,23,31,040,38,26,15,196,28,27,,,26*4E
$GPGSV,3,3,09,32,42,145,22*47
$GPGLL,3003.40946,N,03114.54755,E,161631.00,A,A*65

$GPRMC,161632.00,A,3003.41006,N,03114.54725,E,2.165,,240422,,,A*76
$GPVTG,,T,,M,2.165,N,4.009,K,A*2E
$GPGGA,161632.00,3003.41006,N,03114.54725,E,1,04,3.42,54.5,M,15.4,M,,*6D
$GPGSA,A,3,23,18,08,10,,,,,,,,,4.27,3.42,2.55*05
$GPGSV,3,1,09,08,35,318,42,10,64,022,45,18,13,082,13,21,19,297,27*73
$GPGSV,3,2,09,22,28,163,11,23,31,040,39,26,15,196,28,27,,,27*46
$GPGSV,3,3,09,32,42,145,24*41
$GPGLL,3003.41006,N,03114.54725,E,161632.00,A,A*6D

$GPRMC,161633.00,A,3003.41075,N,03114.54713,E,2.474,,240422,,,A*73
$GPVTG,,T,,M,2.474,N,4.583,K,A*2C
$GPGGA,161633.00,3003.41075,N,03114.54713,E,1,04,3.42,54.4,M,15.4,M,,*6C
$GPGSA,A,3,23,18,08,10,,,,,,,,,4.27,3.42,2.55*05
$GPGSV,3,1,09,08,35,318,42,10,64,022,45,18,13,082,11,21,19,297,27*71
$GPGSV,3,2,09,22,28,163,14,23,31,040,39,26,15,196,28,27,,,27*43
$GPGSV,3,3,09,32,42,145,24*41
$GPGLL,3003.41075,N,03114.54713,E,161633.00,A,A*6D

$GPRMC,161634.00,A,3003.41096,N,03114.54713,E,1.520,,240422,,,A*7A
$GPVTG,,T,,M,1.520,N,2.816,K,A*28
$GPGGA,161634.00,3003.41096,N,03114.54713,E,1,04,3.42,54.4,M,15.4,M,,*66
$GPGSA,A,3,23,18,08,10,,,,,,,,,4.27,3.42,2.55*05
$GPGSV,3,1,09,08,35,318,42,10,64,022,45,18,13,082,11,21,19,297,26*70
$GPGSV,3,2,09,22,28,163,16,23,31,040,39,26,15,196,29,27,,,27*40
$GPGSV,3,3,09,32,42,145,23*46
$GPGLL,3003.41096,N,03114.54713,E,161634.00,A,A*67

$GPRMC,161635.00,A,3003.41099,N,03114.54713,E,0.705,,240422,,,A*70
$GPVTG,,T,,M,0.705,N,1.305,K,A*26
$GPGGA,161635.00,3003.41099,N,03114.54713,E,1,04,3.42,54.3,M,15.4,M,,*6F
$GPGSA,A,3,23,18,08,10,,,,,,,,,4.27,3.42,2.55*05
$GPGSV,3,1,09,08,35,318,42,10,64,022,45,18,13,082,12,21,19,297,26*73
$GPGSV,3,2,09,22,28,163,16,23,31,040,39,26,15,196,29,27,,,27*40
$GPGSV,3,3,09,32,42,145,24*41
$GPGLL,3003.41099,N,03114.54713,E,161635.00,A,A*69

$GPRMC,161636.00,A,3003.41066,N,03114.54713,E,0.343,,240422,,,A*75
$GPVTG,,T,,M,0.343,N,0.635,K,A*27
$GPGGA,161636.00,3003.41066,N,03114.54713,E,1,04,3.42,54.3,M,15.4,M,,*6C
$GPGSA,A,3,23,18,08,10,,,,,,,,,4.27,3.42,2.56*06
$GPGSV,3,1,09,08,35,318,42,10,64,022,45,18,13,082,13,21,19,297,25*71
$GPGSV,3,2,09,22,28,163,16,23,31,040,39,26,15,196,29,27,,,27*40
$GPGSV,3,3,09,32,42,145,22*47
$GPGLL,3003.41066,N,03114.54713,E,161636.00,A,A*6A

$GPRMC,161637.00,A,3003.41017,N,03114.54716,E,0.208,,240422,,,A*79
$GPVTG,,T,,M,0.208,N,0.384,K,A*26
$GPGGA,161637.00,3003.41017,N,03114.54716,E,1,04,3.42,54.3,M,15.4,M,,*6E
$GPGSA,A,3,23,18,08,10,,,,,,,,,4.27,3.42,2.56*06
$GPGSV,3,1,09,08,35,318,43,10,64,022,46,18,13,082,15,21,19,297,25*75
$GPGSV,3,2,09,22,28,163,16,23,31,040,39,26,15,196,29,27,,,27*40
$GPGSV,3,3,09,32,42,145,22*47
$GPGLL,3003.41017,N,03114.54716,E,161637.00,A,A*68

$GPRMC,161638.00,A,3003.41022,N,03114.54729,E,0.410,,240422,,,A*73
$GPVTG,,T,,M,0.410,N,0.759,K,A*2D
$GPGGA,161638.00,3003.41022,N,03114.54729,E,1,04,3.42,54.2,M,15.4,M,,*6A
$GPGSA,A,3,23,18,08,10,,,,,,,,,4.27,3.42,2.56*06
$GPGSV,3,1,09,08,35,318,43,10,64,022,46,18,13,082,17,21,19,297,23*71
$GPGSV,3,2,09,22,28,163,14,23,31,040,39,26,15,196,29,27,,,27*42
$GPGSV,3,3,09,32,42,145,21*44
$GPGLL,3003.41022,N,03114.54729,E,161638.00,A,A*6D

$GPRMC,161639.00,A,3003.41042,N,03114.54744,E,0.659,,240422,,,A*70
$GPVTG,,T,,M,0.659,N,1.221,K,A*29
$GPGGA,161639.00,3003.41042,N,03114.54744,E,1,04,3.42,54.1,M,15.4,M,,*65
$GPGSA,A,3,23,18,08,10,,,,,,,,,4.27,3.42,2.56*06
$GPGSV,3,1,09,08,35,318,43,10,64,022,46,18,13,082,19,21,19,297,21*7D
$GPGSV,3,2,09,22,28,163,14,23,31,040,39,26,15,196,29,27,,,27*42
$GPGSV,3,3,09,32,42,145,20*45
$GPGLL,3003.41042,N,03114.54744,E,161639.00,A,A*61

$GPRMC,161640.00,A,3003.41047,N,03114.54765,E,0.789,,240422,,,A*74
$GPVTG,,T,,M,0.789,N,1.462,K,A*24
$GPGGA,161640.00,3003.41047,N,03114.54765,E,1,04,3.42,54.1,M,15.4,M,,*6D
$GPGSA,A,3,23,18,08,10,,,,,,,,,4.27,3.42,2.56*06
$GPGSV,3,1,09,08,35,318,43,10,64,022,45,18,13,082,20,21,19,297,20*75
$GPGSV,3,2,09,22,28,163,13,23,31,040,38,26,15,196,28,27,74,316,28*7D
$GPGSV,3,3,09,32,42,145,19*4F
$GPGLL,3003.41047,N,03114.54765,E,161640.00,A,A*69

$RMC,161641.00,A,3003.41033,N,03114.54785,E,0.599,,240422,,,A*7B
$GPVTG,,T,,M,0.599,N,1.109,K,A*2F
$GPGGA,161641.00,3003.41033,N,03114.54785,E,1,04,3.42,54.1,M,15.4,M,,*61
$GPGSA,A,3,23,18,08,10,,,,,,,,,4.27,3.42,2.56*06
$GPGSV,3,1,09,08,35,318,43,10,64,022,46,18,13,082,22,21,19,297,19*7E
$GPGSV,3,2,09,22,28,163,12,23,31,040,38,26,15,196,28,27,74,316,28*7C
$GPGSV,3,3,09,32,42,145,18*4E
$GPGLL,3003.41033,N,03114.54785,E,161641.00,A,A*65

$GPRMC,161642.00,A,3003.41035,N,03114.54813,E,0.634,,240422,,,A*7A
$GPVTG,,T,,M,0.634,N,1.174,K,A*21
$GPGGA,161642.00,3003.41035,N,03114.54813,E,1,04,3.42,54.0,M,15.4,M,,*65
$GPGSA,A,3,23,18,08,10,,,,,,,,,4.27,3.42,2.56*06
$GPGSV,3,1,09,08,35,318,43,10,64,022,46,18,13,082,23,21,19,297,19*7F
$GPGSV,3,2,09,22,28,163,10,23,31,040,38,26,15,196,28,27,74,316,28*7E
$GPGSV,3,3,09,32,42,145,16*40
$GPGLL,3003.41035,N,03114.54813,E,161642.00,A,A*60

$RMC,161643.00,A,3003.41039,N,03114.54838,E,0.294,,240422,,,A*70
$GPVTG,,T,,M,0.294,N,0.544,K,A*29
$GPGGA,161643.00,3003.41039,N,03114.54838,E,1,04,3.42,54.0,M,15.4,M,,*61
$GPGSA,A,3,23,18,08,10,,,,,,,,,4.27,3.42,2.56*06
$GPGSV,3,1,09,08,35,318,43,10,64,022,46,18,13,082,23,21,19,297,19*7F
$GPGSV,3,2,09,22,28,163,,23,31,040,38,26,15,196,28,27,74,316,28*7F
$GPGSV,3,3,09,32,42,145,15*43
$GPGLL,3003.41039,N,03114.54838,E,161643.00,A,A*64

$GPRMC,161644.00,A,3003.41043,N,03114.54853,E,0.146,,240422,,,A*7B
$GPVTG,,T,,M,0.146,N,0.271,K,A*24
$GPGGA,161644.00,3003.41043,N,03114.54853,E,1,04,3.42,53.9,M,15.4,M,,*68
$GPGSA,A,3,23,18,08,10,,,,,,,,,4.27,3.42,2.56*06
$GPGSV,3,1,09,08,35,318,42,10,64,022,46,18,13,082,24,21,19,297,20*73
$GPGSV,3,2,09,22,28,163,,23,31,040,38,26,15,196,28,27,74,316,28*7F
$GPGSV,3,3,09,32,42,145,14*42
$GPGLL,3003.41043,N,03114.54853,E,161644.00,A,A*63

$GPRMC,161645.00,A,3003.41064,N,03114.54854,E,0.549,,240422,,,A*73
$GPVTG,,T,,M,0.549,N,1.018,K,A*23
$GPGGA,161645.00,3003.41064,N,03114.54854,E,1,04,3.41,53.7,M,15.4,M,,*66
$GPGSA,A,3,23,18,08,10,,,,,,,,,4.27,3.41,2.56*05
$GPGSV,3,1,09,08,35,318,42,10,64,022,46,18,13,082,24,21,19,297,21*72
$GPGSV,3,2,09,22,28,163,,23,31,040,38,26,15,196,28,27,74,316,28*7F
$GPGSV,3,3,09,32,42,145,15*43
$GPGLL,3003.41064,N,03114.54854,E,161645.00,A,A*60

$03.41071,N,03114.54853,E,0.199,,240422,,,A*7A
$GPVTG,,T,,M,0.199,N,0.368,K,A*2F
$GPGGA,161646.00,3003.41071,N,03114.54853,E,1,04,3.41,53.6,M,15.4,M,,*67
$GPGSA,A,3,23,18,08,10,,,,,,,,,4.27,3.41,2.56*05
$GPGSV,3,1,09,08,35,318,42,10,64,022,46,18,13,082,24,21,19,297,21*72
$GPGSV,3,2,09,22,28,163,,23,31,040,38,26,15,196,28,27,74,316,28*7F
$GPGSV,3,3,09,32,42,145,14*42
$GPGLL,3003.41071,N,03114.54853,E,161646.00,A,A*60

$C,161647.00,A,3003.41099,N,03114.54861,E,0.133,,240422,,,A*7C
$GPVTG,,T,,M,0.133,N,0.246,K,A*22
$GPGGA,161647.00,3003.41099,N,03114.54861,E,1,04,3.41,53.4,M,15.4,M,,*63
$GPGSA,A,3,23,18,08,10,,,,,,,,,4.27,3.41,2.56*05
$GPGSV,3,1,09,08,35,318,43,10,64,022,47,18,13,082,26,21,19,297,20*71
$GPGSV,3,2,09,22,28,163,,23,31,040,39,26,15,196,28,27,74,316,29*7F
$GPGSV,3,3,09,32,42,145,13*45
$GPGLL,3003.41099,N,03114.54861,E,161647.00,A,A*66

$00,A,3003.41138,N,03114.54858,E,0.567,,240422,,,A*76
$GPVTG,,T,,M,0.567,N,1.049,K,A*2B
$GPGGA,161648.00,3003.41138,N,03114.54858,E,1,04,3.41,53.2,M,15.4,M,,*6A
$GPGSA,A,3,23,18,08,10,,,,,,,,,4.27,3.41,2.56*05
$GPGSV,3,1,09,08,35,318,43,10,64,022,47,18,13,082,26,21,19,297,19*7B
$GPGSV,3,2,09,22,28,163,,23,31,040,39,26,15,196,28,27,74,316,29*7F
$GPGSV,3,3,09,32,42,145,13*45
$GPGLL,3003.41138,N,03114.54858,E,161648.00,A,A*69

$649.00,A,3003.41175,N,03114.54850,E,0.326,,240422,,,A*75
$GPVTG,,T,,M,0.326,N,0.604,K,A*26
$GPGGA,161649.00,3003.41175,N,03114.54850,E,1,04,3.41,53.0,M,15.4,M,,*68
$GPGSA,A,3,23,18,08,10,,,,,,,,,4.27,3.41,2.56*05
$GPGSV,3,1,09,08,35,318,43,10,64,022,47,18,13,082,27,21,19,297,17*74
$GPGSV,3,2,09,22,28,163,,23,31,040,39,26,15,196,27,27,74,316,29*70
$GPGSV,3,3,09,32,42,145,14*42
$GPGLL,3003.41175,N,03114.54850,E,161649.00,A,A*69

$.00,A,3003.41212,N,03114.54830,E,0.174,,240422,,,A*7C
$GPVTG,,T,,M,0.174,N,0.321,K,A*21
$GPGGA,161650.00,3003.41212,N,03114.54830,E,1,04,3.41,52.6,M,15.4,M,,*63
$GPGSA,A,3,23,18,08,10,,,,,,,,,4.27,3.41,2.56*05
$GPGSV,3,1,09,08,35,318,42,10,64,022,47,18,13,082,28,21,19,297,12*7F
$GPGSV,3,2,09,22,28,163,,23,31,040,39,26,15,196,27,27,74,316,30*78
$GPGSV,3,3,09,32,42,145,14*42
$GPGLL,3003.41212,N,03114.54830,E,161650.00,A,A*65

$51.00,A,3003.41259,N,03114.54814,E,0.421,,240422,,,A*71
$GPVTG,,T,,M,0.421,N,0.779,K,A*2D
$GPGGA,161651.00,3003.41259,N,03114.54814,E,1,04,3.41,52.2,M,15.4,M,,*6F
$GPGSA,A,3,23,18,08,10,,,,,,,,,4.27,3.41,2.56*05
$GPGSV,3,1,09,08,35,318,42,10,64,022,48,18,13,082,29,21,19,297,*72
$GPGSV,3,2,09,22,28,163,,23,31,040,39,26,15,196,27,27,74,316,30*78
$GPGSV,3,3,09,32,42,145,16*40
$GPGLL,3003.41259,N,03114.54814,E,161651.00,A,A*6D

$161652.00,A,3003.41323,N,03114.54813,E,1.224,,240422,,,A*7B
$GPVTG,,T,,M,1.224,N,2.266,K,A*26
$GPGGA,161652.00,3003.41323,N,03114.54813,E,1,04,3.41,51.8,M,15.4,M,,*6E
$GPGSA,A,3,23,18,08,10,,,,,,,,,4.27,3.41,2.56*05
$GPGSV,3,1,09,08,35,318,42,10,63,023,48,18,13,082,30,21,19,297,*7C
$GPGSV,3,2,09,22,28,163,,23,31,040,39,26,15,196,26,27,74,316,30*79
$GPGSV,3,3,09,32,42,145,15*43
$GPGLL,3003.41323,N,03114.54813,E,161652.00,A,A*65

$653.00,A,3003.41336,N,03114.54801,E,0.501,,240422,,,A*7C
$GPVTG,,T,,M,0.501,N,0.927,K,A*2B
$GPGGA,161653.00,3003.41336,N,03114.54801,E,1,04,3.41,51.5,M,15.4,M,,*65
$GPGSA,A,3,23,18,08,10,,,,,,,,,4.27,3.41,2.56*05
$GPGSV,3,1,09,08,35,318,42,10,63,023,48,18,13,082,30,21,19,297,*7C
$GPGSV,3,2,09,22,28,163,,23,31,040,39,26,15,196,26,27,74,316,31*78
$GPGSV,3,3,09,32,42,145,14*42
$GPGLL,3003.41336,N,03114.54801,E,161653.00,A,A*63

$161654.00,A,3003.41341,N,03114.54785,E,0.052,,240422,,,A*7B
$GPVTG,,T,,M,0.052,N,0.096,K,A*2B
$GPGGA,161654.00,3003.41341,N,03114.54785,E,1,04,3.41,51.1,M,15.4,M,,*65
$GPGSA,A,3,23,18,08,10,,,,,,,,,4.27,3.41,2.56*05
$GPGSV,3,1,09,08,35,318,42,10,63,023,48,18,13,082,30,21,19,297,*7C
$GPGSV,3,2,09,22,28,163,,23,31,040,38,26,15,196,25,27,74,316,31*7A
$GPGSV,3,3,09,32,42,145,10*46
$GPGLL,3003.41341,N,03114.54785,E,161654.00,A,A*67

$00,A,3003.41342,N,03114.54769,E,0.064,,240422,,,A*7E
$GPVTG,,T,,M,0.064,N,0.119,K,A*28
$GPGGA,161655.00,3003.41342,N,03114.54769,E,1,04,3.41,50.6,M,15.4,M,,*63
$GPGSA,A,3,23,18,08,10,,,,,,,,,4.27,3.41,2.57*04
$GPGSV,3,1,09,08,35,318,42,10,63,023,48,18,13,082,31,21,19,297,*7D
$GPGSV,3,2,09,22,28,163,,23,31,040,38,26,15,196,25,27,74,316,32*79
$GPGSV,3,3,09,32,42,145,11*47
$GPGLL,3003.41342,N,03114.54769,E,161655.00,A,A*67

$PRMC,161656.00,A,3003.41363,N,03114.54764,E,0.604,,240422,,,A*73
$GPVTG,,T,,M,0.604,N,1.118,K,A*28
$GPGGA,161656.00,3003.41363,N,03114.54764,E,1,04,3.41,50.1,M,15.4,M,,*69
$GPGSA,A,3,23,18,08,10,,,,,,,,,4.27,3.41,2.57*04
$GPGSV,3,1,09,08,35,318,42,10,63,023,48,18,13,082,32,21,19,297,*7E
$GPGSV,3,2,09,22,28,163,,23,31,040,38,26,15,196,25,27,74,316,32*79
$GPGSV,3,3,09,32,42,145,10*46
$GPGLL,3003.41363,N,03114.54764,E,161656.00,A,A*6A

$A,3003.41361,N,03114.54760,E,0.334,,240422,,,A*72
$GPVTG,,T,,M,0.334,N,0.619,K,A*29
$GPGGA,161657.00,3003.41361,N,03114.54760,E,1,04,3.41,49.6,M,15.4,M,,*61
$GPGSA,A,3,23,18,08,10,,,,,,,,,4.27,3.41,2.57*04
$GPGSV,3,1,09,08,35,318,42,10,63,023,48,18,13,082,32,21,19,297,*7E
$GPGSV,3,2,09,22,28,163,,23,31,040,38,26,15,196,25,27,74,316,33*78
$GPGSV,3,3,09,32,42,145,11*47
$GPGLL,3003.41361,N,03114.54760,E,161657.00,A,A*6D

$MC,161658.00,A,3003.41369,N,03114.54751,E,0.247,,240422,,,A*72
$GPVTG,,T,,M,0.247,N,0.457,K,A*24
$GPGGA,161658.00,3003.41369,N,03114.54751,E,1,04,3.41,49.1,M,15.4,M,,*63
$GPGSA,A,3,23,18,08,10,,,,,,,,,4.27,3.41,2.57*04
$GPGSV,3,1,09,08,35,318,42,10,63,023,48,18,13,082,32,21,19,297,*7E
$GPGSV,3,2,09,22,28,163,,23,31,040,38,26,15,196,26,27,74,316,33*7B
$GPGSV,3,3,09,32,42,145,09*4E
$GPGLL,3003.41369,N,03114.54751,E,161658.00,A,A*68

$0,A,3003.41328,N,03114.54743,E,0.237,,240422,,,A*72
$GPVTG,,T,,M,0.237,N,0.440,K,A*25
$GPGGA,161659.00,3003.41328,N,03114.54743,E,1,04,3.41,48.3,M,15.4,M,,*67
$GPGSA,A,3,23,18,08,10,,,,,,,,,4.27,3.41,2.57*04
$GPGSV,3,1,09,08,35,318,42,10,63,023,47,18,13,082,33,21,19,297,21*73
$GPGSV,3,2,09,22,28,163,,23,31,040,38,26,15,196,27,27,74,316,33*7A
$GPGSV,3,3,09,32,42,145,08*4F
$GPGLL,3003.41328,N,03114.54743,E,161659.00,A,A*6F

$,161700.00,A,3003.41328,N,03114.54755,E,0.380,,240422,,,A*75
$GPVTG,,T,,M,0.380,N,0.703,K,A*2C
$GPGGA,161700.00,3003.41328,N,03114.54755,E,1,04,3.41,47.6,M,15.4,M,,*67
$GPGSA,A,3,23,18,08,10,,,,,,,,,4.27,3.41,2.57*04
$GPGSV,3,1,09,08,35,318,42,10,63,023,47,18,13,082,33,21,19,297,19*78
$GPGSV,3,2,09,22,28,163,,23,31,040,38,26,15,196,27,27,74,316,33*7A
$GPGSV,3,3,09,32,42,145,*47
$GPGLL,3003.41328,N,03114.54755,E,161700.00,A,A*65

$1.00,A,3003.41297,N,03114.54763,E,0.291,,240422,,,A*75
$GPVTG,,T,,M,0.291,N,0.538,K,A*27
$GPGGA,161701.00,3003.41297,N,03114.54763,E,1,04,3.41,47.1,M,15.4,M,,*61
$GPGSA,A,3,23,18,08,10,,,,,,,,,4.27,3.41,2.57*04
$GPGSV,3,1,09,08,35,318,42,10,63,023,47,18,13,082,33,21,19,297,19*78
$GPGSV,3,2,09,22,28,163,,23,31,040,38,26,15,196,27,27,74,316,33*7A
$GPGSV,3,3,09,32,42,145,*47
$GPGLL,3003.41297,N,03114.54763,E,161701.00,A,A*64

$61702.00,A,3003.41258,N,03114.54753,E,0.591,,240422,,,A*71
$GPVTG,,T,,M,0.591,N,1.094,K,A*22
$GPGGA,161702.00,3003.41258,N,03114.54753,E,1,04,3.41,46.8,M,15.4,M,,*6A
$GPGSA,A,3,23,18,08,10,,,,,,,,,4.27,3.41,2.57*04
$GPGSV,3,1,09,08,35,318,42,10,63,023,47,18,13,082,33,21,19,297,20*72
$GPGSV,3,2,09,22,28,163,,23,31,040,38,26,15,196,28,27,74,316,32*74
$GPGSV,3,3,09,32,42,145,*47
$GPGLL,3003.41258,N,03114.54753,E,161702.00,A,A*67

$3.00,A,3003.41228,N,03114.54745,E,0.645,,240422,,,A*7A
$GPVTG,,T,,M,0.645,N,1.194,K,A*29
$GPGGA,161703.00,3003.41228,N,03114.54745,E,1,04,3.41,46.4,M,15.4,M,,*67
$GPGSA,A,3,23,18,08,10,,,,,,,,,4.27,3.41,2.57*04
$GPGSV,3,1,09,08,35,318,42,10,63,023,47,18,13,082,33,21,19,297,19*78
$GPGSV,3,2,09,22,28,163,,23,31,040,39,26,15,196,27,27,74,316,32*7A
$GPGSV,3,3,09,32,42,145,18*4E
$GPGLL,3003.41228,N,03114.54745,E,161703.00,A,A*66

$MC,161704.00,A,3003.41227,N,03114.54739,E,0.145,,240422,,,A*7E
$GPVTG,,T,,M,0.145,N,0.268,K,A*2F
$GPGGA,161704.00,3003.41227,N,03114.54739,E,1,05,2.61,46.1,M,15.4,M,,*63
$GPGSA,A,3,23,27,18,08,10,,,,,,,,3.43,2.61,2.22*05
$GPGSV,3,1,09,08,35,318,42,10,63,023,47,18,13,082,33,21,19,297,19*78
$GPGSV,3,2,09,22,28,163,,23,31,040,39,26,15,196,28,27,74,315,32*76
$GPGSV,3,3,09,32,42,145,19*4F
$GPGLL,3003.41227,N,03114.54739,E,161704.00,A,A*65

$18,N,03114.54731,E,0.028,,240422,,,A*71
$GPVTG,,T,,M,0.028,N,0.052,K,A*2E
$GPGGA,161705.00,3003.41218,N,03114.54731,E,1,05,2.61,45.7,M,15.4,M,,*63
$GPGSA,A,3,23,27,18,08,10,,,,,,,,3.43,2.61,2.22*05
$GPGSV,3,1,09,08,35,318,42,10,63,023,47,18,13,082,34,21,19,297,18*7E
$GPGSV,3,2,09,22,28,163,,23,31,040,39,26,15,196,28,27,74,315,31*75
$GPGSV,3,3,09,32,42,145,19*4F
$GPGLL,3003.41218,N,03114.54731,E,161705.00,A,A*60

$GPRMC,161706.00,A,3003.41218,N,03114.54719,E,0.033,,240422,,,A*72
$GPVTG,,T,,M,0.033,N,0.061,K,A*24
$GPGGA,161706.00,3003.41218,N,03114.54719,E,1,05,2.61,45.4,M,15.4,M,,*69
$GPGSA,A,3,23,27,18,08,10,,,,,,,,3.43,2.61,2.22*05
$GPGSV,3,1,09,08,35,318,42,10,63,023,48,18,13,082,33,21,19,297,18*76
$GPGSV,3,2,09,22,28,163,,23,31,040,39,26,15,196,28,27,74,315,31*75
$GPGSV,3,3,09,32,42,145,19*4F
$GPGLL,3003.41218,N,03114.54719,E,161706.00,A,A*69

$207,N,03114.54706,E,0.011,,240422,,,A*73
$GPVTG,,T,,M,0.011,N,0.021,K,A*20
$GPGGA,161707.00,3003.41207,N,03114.54706,E,1,05,2.61,45.1,M,15.4,M,,*6D
$GPGSA,A,3,23,27,18,08,10,,,,,,,,3.43,2.61,2.22*05
$GPGSV,3,1,09,08,35,318,42,10,63,023,47,18,13,082,33,21,19,297,20*72
$GPGSV,3,2,09,22,28,163,,23,31,040,39,26,15,196,28,27,74,315,32*76
$GPGSV,3,3,09,32,42,145,19*4F
$GPGLL,3003.41207,N,03114.54706,E,161707.00,A,A*68

$GPRMC,161708.00,A,3003.41205,N,03114.54692,E,0.042,,240422,,,A*74
$GPVTG,,T,,M,0.042,N,0.078,K,A*2A
$GPGGA,161708.00,3003.41205,N,03114.54692,E,1,05,2.61,45.0,M,15.4,M,,*6D
$GPGSA,A,3,23,27,18,08,10,,,,,,,,3.43,2.61,2.22*05
$GPGSV,3,1,09,08,35,318,41,10,63,023,47,18,13,082,32,21,19,297,21*71
$GPGSV,3,2,09,22,28,163,,23,31,040,39,26,15,195,29,27,74,315,32*74
$GPGSV,3,3,09,32,42,145,20*45
$GPGLL,3003.41205,N,03114.54692,E,161708.00,A,A*69

$204,N,03114.54679,E,0.056,,240422,,,A*74
$GPVTG,,T,,M,0.056,N,0.105,K,A*24
$GPGGA,161709.00,3003.41204,N,03114.54679,E,1,05,2.61,44.8,M,15.4,M,,*61
$GPGSA,A,3,23,27,18,08,10,,,,,,,,3.43,2.61,2.22*05
$GPGSV,3,1,09,08,35,318,42,10,63,023,47,18,13,082,32,21,19,297,21*72
$GPGSV,3,2,09,22,28,163,17,23,31,040,38,26,15,195,28,27,74,315,31*71
$GPGSV,3,3,09,32,42,145,21*44
$GPGLL,3003.41204,N,03114.54679,E,161709.00,A,A*6C

$RMC,161710.00,A,3003.41197,N,03114.54667,E,0.019,,240422,,,A*71
$GPVTG,,T,,M,0.019,N,0.035,K,A*2D
$GPGGA,161710.00,3003.41197,N,03114.54667,E,1,05,2.61,44.6,M,15.4,M,,*61
$GPGSA,A,3,23,27,18,08,10,,,,,,,,3.43,2.61,2.22*05
$GPGSV,3,1,09,08,35,318,42,10,63,023,47,18,13,082,32,21,19,297,22*71
$GPGSV,3,2,09,22,28,163,16,23,31,040,38,26,15,195,28,27,74,315,31*70
$GPGSV,3,3,09,32,42,145,20*45
$GPGLL,3003.41197,N,03114.54667,E,161710.00,A,A*62

$83,N,03114.54658,E,0.146,,240422,,,A*72
$GPVTG,,T,,M,0.146,N,0.270,K,A*25
$GPGGA,161711.00,3003.41183,N,03114.54658,E,1,05,2.61,44.5,M,15.4,M,,*6A
$GPGSA,A,3,23,27,18,08,10,,,,,,,,3.42,2.61,2.22*04
$GPGSV,3,1,09,08,35,318,42,10,63,023,47,18,13,082,32,21,19,297,24*77
$GPGSV,3,2,09,22,28,163,17,23,31,040,38,26,15,195,29,27,74,315,32*73
$GPGSV,3,3,09,32,42,145,20*45
$GPGLL,3003.41183,N,03114.54658,E,161711.00,A,A*6A

$C,161712.00,A,3003.41196,N,03114.54655,E,0.169,,240422,,,A*75
$GPVTG,,T,,M,0.169,N,0.312,K,A*2D
$GPGGA,161712.00,3003.41196,N,03114.54655,E,1,05,2.61,44.5,M,15.4,M,,*60
$GPGSA,A,3,23,27,18,08,10,,,,,,,,3.42,2.61,2.22*04
$GPGSV,3,1,09,08,35,318,42,10,63,023,48,18,13,082,31,21,19,297,26*79
$GPGSV,3,2,09,22,28,163,18,23,31,040,39,26,15,195,29,27,74,315,32*7D
$GPGSV,3,3,09,32,42,145,20*45
$GPGLL,3003.41196,N,03114.54655,E,161712.00,A,A*60

$1193,N,03114.54656,E,0.116,,240422,,,A*7A
$GPVTG,,T,,M,0.116,N,0.214,K,A*22
$GPGGA,161713.00,3003.41193,N,03114.54656,E,1,05,2.61,44.6,M,15.4,M,,*64
$GPGSA,A,3,23,27,18,08,10,,,,,,,,3.42,2.61,2.22*04
$GPGSV,3,1,09,08,35,318,42,10,63,023,47,18,13,082,31,21,19,297,26*76
$GPGSV,3,2,09,22,28,163,19,23,31,040,39,26,15,195,29,27,74,315,32*7C
$GPGSV,3,3,09,32,42,145,19*4F
$GPGLL,3003.41193,N,03114.54656,E,161713.00,A,A*67

$,161714.00,A,3003.41182,N,03114.54658,E,0.078,,240422,,,A*7A
$GPVTG,,T,,M,0.078,N,0.144,K,A*2D
$GPGGA,161714.00,3003.41182,N,03114.54658,E,1,05,2.61,44.6,M,15.4,M,,*6D
$GPGSA,A,3,23,27,18,08,10,,,,,,,,3.42,2.61,2.22*04
$GPGSV,3,1,09,08,35,318,42,10,63,023,47,18,13,082,30,21,19,297,27*76
$GPGSV,3,2,09,22,28,163,18,23,31,040,39,26,15,195,29,27,74,315,32*7D
$GPGSV,3,3,09,32,43,144,21*44
$GPGLL,3003.41182,N,03114.54658,E,161714.00,A,A*6E

$1162,N,03114.54662,E,0.169,,240422,,,A*7D
$GPVTG,,T,,M,0.169,N,0.313,K,A*2C
$GPGGA,161715.00,3003.41162,N,03114.54662,E,1,05,2.61,44.6,M,15.4,M,,*6B
$GPGSA,A,3,23,27,18,08,10,,,,,,,,3.42,2.61,2.22*04
$GPGSV,3,1,09,08,35,318,43,10,63,023,47,18,13,082,30,21,19,297,27*77
$GPGSV,3,2,09,22,28,163,17,23,31,040,38,26,15,195,29,27,74,315,32*73
$GPGSV,3,3,09,32,43,144,21*44
$GPGLL,3003.41162,N,03114.54662,E,161715.00,A,A*68

$PRMC,161716.00,A,3003.41147,N,03114.54668,E,0.183,,240422,,,A*77
$GPVTG,,T,,M,0.183,N,0.340,K,A*2E
$GPGGA,161716.00,3003.41147,N,03114.54668,E,1,05,2.61,44.5,M,15.4,M,,*66
$GPGSA,A,3,23,27,18,08,10,,,,,,,,3.42,2.61,2.22*04
$GPGSV,3,1,09,08,35,318,43,10,63,023,47,18,13,082,30,21,19,297,28*78
$GPGSV,3,2,09,22,28,163,17,23,31,040,38,26,15,195,28,27,74,315,32*72
$GPGSV,3,3,09,32,43,144,22*47
$GPGLL,3003.41147,N,03114.54668,E,161716.00,A,A*66

$03114.54677,E,0.215,,240422,,,A*77
$GPVTG,,T,,M,0.215,N,0.397,K,A*28
$GPGGA,161717.00,3003.41122,N,03114.54677,E,1,05,2.60,44.6,M,15.4,M,,*68
$GPGSA,A,3,23,27,18,08,10,,,,,,,,3.42,2.60,2.22*05
$GPGSV,3,1,09,08,35,318,43,10,63,023,47,18,13,082,30,21,19,297,28*78
$GPGSV,3,2,09,22,28,163,18,23,31,040,38,26,15,195,28,27,74,315,33*7C
$GPGSV,3,3,09,32,43,144,21*44
$GPGLL,3003.41122,N,03114.54677,E,161717.00,A,A*6A

$GPRMC,161718.00,A,3003.41105,N,03114.54690,E,0.063,,240422,,,A*77
$GPVTG,,T,,M,0.063,N,0.116,K,A*20
$GPGGA,161718.00,3003.41105,N,03114.54690,E,1,05,2.60,44.8,M,15.4,M,,*65
$GPGSA,A,3,23,27,18,08,10,,,,,,,,3.42,2.60,2.22*05
$GPGSV,3,1,09,08,35,318,43,10,63,023,47,18,13,082,30,21,19,297,28*78
$GPGSV,3,2,09,22,28,163,18,23,31,040,38,26,15,195,28,27,74,315,33*7C
$GPGSV,3,3,09,32,43,144,20*45
$GPGLL,3003.41105,N,03114.54690,E,161718.00,A,A*69

$,N,03114.54701,E,0.147,,240422,,,A*76
$GPVTG,,T,,M,0.147,N,0.272,K,A*26
$GPGGA,161719.00,3003.41082,N,03114.54701,E,1,05,2.60,44.6,M,15.4,M,,*6D
$GPGSA,A,3,23,27,18,08,10,,,,,,,,3.42,2.60,2.22*05
$GPGSV,3,1,09,08,35,318,43,10,63,023,47,18,13,082,31,21,19,297,28*79
$GPGSV,3,2,09,22,28,163,19,23,31,040,38,26,15,195,27,27,74,315,32*73
$GPGSV,3,3,09,32,43,144,20*45
$GPGLL,3003.41082,N,03114.54701,E,161719.00,A,A*6F

$GPRMC,161720.00,A,3003.41066,N,03114.54713,E,0.114,,240422,,,A*73
$GPVTG,,T,,M,0.114,N,0.212,K,A*26
$GPGGA,161720.00,3003.41066,N,03114.54713,E,1,05,2.60,44.6,M,15.4,M,,*6E
$GPGSA,A,3,23,27,18,08,10,,,,,,,,3.42,2.60,2.22*05
$GPGSV,3,1,09,08,35,318,43,10,63,023,47,18,13,082,31,21,19,297,27*76
$GPGSV,3,2,09,22,28,163,20,23,31,040,38,26,15,195,27,27,74,315,32*79
$GPGSV,3,3,09,32,43,144,20*45
$GPGLL,3003.41066,N,03114.54713,E,161720.00,A,A*6C

$,N,03114.54724,E,0.135,,240422,,,A*75
$GPVTG,,T,,M,0.135,N,0.250,K,A*23
$GPGGA,161721.00,3003.41044,N,03114.54724,E,1,05,2.60,44.6,M,15.4,M,,*6B
$GPGSA,A,3,23,27,18,08,10,,,,,,,,3.42,2.60,2.22*05
$GPGSV,3,1,09,08,35,318,43,10,63,023,47,18,13,082,31,21,19,297,27*76
$GPGSV,3,2,09,22,28,163,21,23,31,040,38,26,15,195,26,27,74,315,32*79
$GPGSV,3,3,09,32,43,144,20*45
$GPGLL,3003.41044,N,03114.54724,E,161721.00,A,A*69

$GPRMC,161722.00,A,3003.41023,N,03114.54737,E,0.071,,240422,,,A*74
$GPVTG,,T,,M,0.071,N,0.131,K,A*26
$GPGGA,161722.00,3003.41023,N,03114.54737,E,1,05,2.60,44.5,M,15.4,M,,*68
$GPGSA,A,3,23,27,18,08,10,,,,,,,,3.42,2.60,2.22*05
$GPGSV,3,1,09,08,35,318,43,10,63,023,47,18,13,082,32,21,19,297,27*75
$GPGSV,3,2,09,22,28,163,21,23,31,040,39,26,15,195,26,27,74,315,32*78
$GPGSV,3,3,09,32,43,144,19*4F
$GPGLL,3003.41023,N,03114.54737,E,161722.00,A,A*69

$N,03114.54744,E,0.060,,240422,,,A*78
$GPVTG,,T,,M,0.060,N,0.111,K,A*24
$GPGGA,161723.00,3003.40999,N,03114.54744,E,1,05,2.60,44.5,M,15.4,M,,*64
$GPGSA,A,3,23,27,18,08,10,,,,,,,,3.42,2.60,2.22*05
$GPGSV,3,1,09,08,35,318,43,10,63,023,47,18,13,082,32,21,19,297,26*74
$GPGSV,3,2,09,22,28,163,21,23,31,040,39,26,15,195,26,27,74,315,32*78
$GPGSV,3,3,09,32,43,144,18*4E
$GPGLL,3003.40999,N,03114.54744,E,161723.00,A,A*65

$GPRMC,161724.00,A,3003.40972,N,03114.54751,E,0.059,,240422,,,A*74
$GPVTG,,T,,M,0.059,N,0.109,K,A*27
$GPGGA,161724.00,3003.40972,N,03114.54751,E,1,05,2.60,44.4,M,15.4,M,,*63
$GPGSA,A,3,23,27,18,08,10,,,,,,,,3.42,2.60,2.22*05
$GPGSV,3,1,09,08,35,318,43,10,63,023,47,18,13,082,33,21,19,297,27*74
$GPGSV,3,2,09,22,28,163,21,23,31,040,39,26,15,195,25,27,74,315,31*78
$GPGSV,3,3,09,32,43,144,19*4F
$GPGLL,3003.40972,N,03114.54751,E,161724.00,A,A*63

$N,03114.54762,E,0.031,,240422,,,A*79
$GPVTG,,T,,M,0.031,N,0.057,K,A*23
$GPGGA,161725.00,3003.40934,N,03114.54762,E,1,05,2.60,44.7,M,15.4,M,,*63
$GPGSA,A,3,23,27,18,08,10,,,,,,,,3.42,2.60,2.22*05
$GPGSV,3,1,09,08,35,318,44,10,63,023,46,18,13,082,33,21,19,297,26*73
$GPGSV,3,2,09,22,28,163,21,23,31,040,39,26,15,195,24,27,74,315,31*79
$GPGSV,3,3,09,32,43,144,20*45
$GPGLL,3003.40934,N,03114.54762,E,161725.00,A,A*60

$GPRMC,161726.00,A,3003.40887,N,03114.54767,E,0.030,,240422,,,A*77
$GPVTG,,T,,M,0.030,N,0.056,K,A*23
$GPGGA,161726.00,3003.40887,N,03114.54767,E,1,05,2.60,44.9,M,15.4,M,,*62
$GPGSA,A,3,23,27,18,08,10,,,,,,,,3.42,2.60,2.22*05
$GPGSV,3,1,09,08,35,318,44,10,63,023,46,18,13,082,34,21,19,297,27*75
$GPGSV,3,2,09,22,28,163,20,23,31,040,39,26,15,195,24,27,74,315,31*78
$GPGSV,3,3,09,32,43,144,20*45
$GPGLL,3003.40887,N,03114.54767,E,161726.00,A,A*6F

$N,03114.54770,E,0.082,,240422,,,A*74
$GPVTG,,T,,M,0.082,N,0.152,K,A*2F
$GPGGA,161727.00,3003.40857,N,03114.54770,E,1,05,2.60,45.0,M,15.4,M,,*60
$GPGSA,A,3,23,27,18,08,10,,,,,,,,3.42,2.60,2.22*05
$GPGSV,3,1,09,08,35,318,43,10,63,023,47,18,13,082,34,21,19,297,26*72
$GPGSV,3,2,09,22,28,163,18,23,31,040,38,26,15,195,26,27,74,315,30*71
$GPGSV,3,3,09,32,43,144,21*44
$GPGLL,3003.40857,N,03114.54770,E,161727.00,A,A*65

$GPRMC,161728.00,A,3003.40833,N,03114.54772,E,0.089,,240422,,,A*70
$GPVTG,,T,,M,0.089,N,0.165,K,A*20
$GPGGA,161728.00,3003.40833,N,03114.54772,E,1,06,2.32,45.1,M,15.4,M,,*6A
$GPGSA,A,3,23,21,27,18,08,10,,,,,,,2.79,2.32,1.55*0B
$GPGSV,3,1,09,08,35,318,43,10,63,023,47,18,13,082,34,21,20,297,23*7D
$GPGSV,3,2,09,22,28,163,16,23,31,040,36,26,15,195,27,27,74,315,30*70
$GPGSV,3,3,09,32,43,144,20*45
$GPGLL,3003.40833,N,03114.54772,E,161728.00,A,A*6A

$4.54770,E,0.121,,240422,,,A*70
$GPVTG,,T,,M,0.121,N,0.225,K,A*24
$GPGGA,161729.00,3003.40811,N,03114.54770,E,1,06,2.32,45.3,M,15.4,M,,*6B
$GPGSA,A,3,23,21,27,18,08,10,,,,,,,2.79,2.32,1.55*0B
$GPGSV,3,1,09,08,35,318,43,10,63,023,47,18,13,082,34,21,20,297,21*7F
$GPGSV,3,2,09,22,28,163,13,23,31,040,38,26,15,195,27,27,74,315,30*7B
$GPGSV,3,3,09,32,43,144,19*4F
$GPGLL,3003.40811,N,03114.54770,E,161729.00,A,A*69

$GPRMC,161730.00,A,3003.40792,N,03114.54769,E,0.116,,240422,,,A*70
$GPVTG,,T,,M,0.116,N,0.214,K,A*22
$GPGGA,161730.00,3003.40792,N,03114.54769,E,1,06,2.32,45.5,M,15.4,M,,*69
$GPGSA,A,3,23,21,27,18,08,10,,,,,,,2.79,2.32,1.55*0B
$GPGSV,3,1,09,08,35,318,43,10,63,023,46,18,13,082,35,21,20,297,18*75
$GPGSV,3,2,09,22,28,163,09,23,31,040,37,26,15,195,26,27,74,315,29*76
$GPGSV,3,3,09,32,43,144,18*4E
$GPGLL,3003.40792,N,03114.54769,E,161730.00,A,A*6D

$114.54770,E,0.149,,240422,,,A*70
$GPVTG,,T,,M,0.149,N,0.277,K,A*2D
$GPGGA,161731.00,3003.40780,N,03114.54770,E,1,06,2.32,45.7,M,15.4,M,,*61
$GPGSA,A,3,23,21,27,18,08,10,,,,,,,2.79,2.32,1.55*0B
$GPGSV,3,1,09,08,35,318,43,10,63,023,46,18,13,082,35,21,20,297,20*7E
$GPGSV,3,2,09,22,28,163,08,23,31,040,37,26,15,195,26,27,74,315,29*77
$GPGSV,3,3,09,32,43,144,16*40
$GPGLL,3003.40780,N,03114.54770,E,161731.00,A,A*67

$GPRMC,161732.00,A,3003.40770,N,03114.54770,E,0.131,,240422,,,A*73
$GPVTG,,T,,M,0.131,N,0.243,K,A*25
$GPGGA,161732.00,3003.40770,N,03114.54770,E,1,06,2.32,46.0,M,15.4,M,,*69
$GPGSA,A,3,23,21,27,18,08,10,,,,,,,2.79,2.32,1.55*0B
$GPGSV,3,1,09,08,35,318,43,10,63,023,47,18,13,082,35,21,20,297,23*7C
$GPGSV,3,2,09,22,28,163,07,23,31,040,38,26,15,195,27,27,74,315,29*76
$GPGSV,3,3,09,32,43,144,14*42
$GPGLL,3003.40770,N,03114.54770,E,161732.00,A,A*6B

$03114.54769,E,0.056,,240422,,,A*7B
$GPVTG,,T,,M,0.056,N,0.104,K,A*25
